City,Lat,Lng,Max Temp,Humidity,Cloudiness,Wind Speed,Country,Date
Bluff,-46.6,168.3333,7.39,81,100,4.2,NZ,1662901707
Bengkulu,-3.8004,102.2655,25.64,78,96,1.06,ID,1662901911
Bredasdorp,-34.5322,20.0403,15.41,54,100,7.3,ZA,1662902001
Vaini,-21.2,-175.2,23.83,77,9,5.76,TO,1662902001
Tsimmerbude,54.675,20.1347,16.03,51,100,7.61,RU,1662901709
Atuona,-9.8,-139.0333,24.77,69,14,8.72,PF,1662901709
Lebu,-37.6167,-73.65,9.15,86,4,1.73,CL,1662902002
Mar del Plata,-38.0023,-57.5575,11.6,79,0,4.12,AR,1662901818
Flinders,-34.5833,150.8552,12.88,58,0,4.92,AU,1662901710
Yellowknife,62.456,-114.3525,7.29,81,75,10.29,CA,1662902002
Tiksi,71.6872,128.8694,2.95,97,100,4.97,RU,1662902003
Bondo,3.8146,23.6866,27.77,65,58,1.86,CD,1662901712
Mount Gambier,-37.8333,140.7667,7.78,88,99,1.81,AU,1662901937
Lompoc,34.6391,-120.4579,22.51,85,0,1.54,US,1662902003
East London,-33.0153,27.9116,19.57,62,16,11.35,ZA,1662901714
Fairbanks,64.8378,-147.7164,5.72,93,0,2.06,US,1662901715
Grand-Lahou,5.1367,-5.0242,26.26,73,81,3.62,CI,1662902004
Ushuaia,-54.8,-68.3,7.81,46,20,5.14,AR,1662901715
Arraial do Cabo,-22.9661,-42.0278,20.92,73,100,3.6,BR,1662901716
Taltal,-25.4,-70.4833,14.2,66,5,1.71,CL,1662902005
Busselton,-33.65,115.3333,12.6,83,4,1.15,AU,1662901889
Saskylakh,71.9167,114.0833,0.46,87,95,3.24,RU,1662902006
Mehamn,71.0357,27.8492,6.97,87,100,0.51,NO,1662902006
Norman Wells,65.282,-126.8329,8.02,93,75,2.57,CA,1662901719
Rikitea,-23.1203,-134.9692,22.17,75,3,3.26,PF,1662901720
Makakilo City,21.3469,-158.0858,24.18,83,0,2.06,US,1662902007
Saint George,37.1041,-113.5841,19.33,77,0,0.0,US,1662901721
Van,38.4924,43.3831,24.64,22,0,2.57,TR,1662901726
Saldanha,-33.0117,17.9442,14.42,65,100,8.14,ZA,1662901729
Souillac,-20.5167,57.5167,23.21,64,40,6.69,MU,1662902008
Hobart,-42.8794,147.3294,7.92,64,75,8.75,AU,1662901729
Tuatapere,-46.1333,167.6833,5.82,85,100,2.61,NZ,1662902008
Faanui,-16.4833,-151.75,26.02,70,0,7.81,PF,1662901730
Jamestown,42.097,-79.2353,18.77,74,100,2.06,US,1662901731
Stornoway,58.2093,-6.3865,15.98,84,75,7.72,GB,1662901731
Punta Arenas,-53.15,-70.9167,7.06,70,20,9.26,CL,1662901855
Fortuna,40.5982,-124.1573,14.25,92,98,0.6,US,1662902009
Salinópolis,-0.6136,-47.3561,29.05,68,32,3.8,BR,1662901733
Ballina,-28.8667,153.5667,16.12,84,100,2.7,AU,1662902010
Nikolskoye,59.7035,30.7861,17.15,39,1,2.7,RU,1662901736
Lorengau,-2.0226,147.2712,26.97,75,100,1.75,PG,1662901737
Hambantota,6.1241,81.1185,27.4,75,94,9.53,LK,1662902011
Marabu,4.4148,114.0089,26.08,94,40,1.03,MY,1662902011
Ortigueira,-24.2083,-50.9494,20.14,75,84,1.81,BR,1662902011
Hong Kong,22.2855,114.1577,30.54,77,1,3.58,HK,1662901760
Leningradskiy,69.3833,178.4167,2.16,96,98,3.45,RU,1662902012
Kapaa,22.0752,-159.319,23.99,89,75,3.09,US,1662902012
Eenhana,-17.4667,16.3333,34.91,7,0,3.33,NA,1662901739
Churapcha,62.0025,132.4325,1.51,81,7,2.48,RU,1662902013
Mayna,54.1135,47.6231,12.62,45,100,2.87,RU,1662901741
Srednekolymsk,67.45,153.6833,6.13,90,100,3.35,RU,1662901741
Provideniya,64.3833,-173.3,6.26,88,100,6.68,RU,1662902014
Zholymbet,51.7433,71.7122,9.58,89,100,6.24,KZ,1662902014
Arica,-18.475,-70.3042,16.13,67,100,1.54,CL,1662901742
Tessalit,20.1986,1.0114,38.47,18,5,1.95,ML,1662902014
Pevek,69.7008,170.3133,4.82,76,14,0.72,RU,1662902014
Hermanus,-34.4187,19.2345,14.89,71,100,7.46,ZA,1662901744
Esperance,-33.8667,121.9,16.01,66,92,8.2,AU,1662901745
Puerto Ayora,-0.7393,-90.3518,19.19,86,100,1.34,EC,1662902016
Nome,64.5011,-165.4064,8.04,76,100,7.2,US,1662902016
Yaan,7.3833,8.5667,24.76,87,95,2.26,NG,1662901746
Castro,-24.7911,-50.0119,13.83,94,100,2.82,BR,1662901746
Avarua,-21.2078,-159.775,23.03,83,75,3.6,CK,1662901975
Albany,42.6001,-73.9662,20.23,86,100,0.59,US,1662901747
Ribeira Grande,38.5167,-28.7,24.22,69,40,9.77,PT,1662902017
Qasigiannguit,68.8193,-51.1922,8.14,99,100,0.52,GL,1662901748
St. George's,12.0564,-61.7485,29.82,74,20,10.29,GD,1662901748
Ouadda,8.0777,22.4007,27.41,71,25,1.69,CF,1662901749
Talnakh,69.4865,88.3972,4.56,95,100,3.37,RU,1662901750
Codrington,-38.2667,141.9667,9.48,72,100,4.36,AU,1662901751
Kati,12.7441,-8.0726,26.82,79,100,3.12,ML,1662901751
Carnarvon,-24.8667,113.6333,20.27,72,6,4.85,AU,1662902019
George Town,5.4112,100.3354,27.96,78,20,0.51,MY,1662902019
Berlevåg,70.8578,29.0864,7.0,81,100,1.03,NO,1662901753
Ponta do Sol,32.6667,-17.1,29.84,75,100,4.81,PT,1662901754
Itarema,-2.9248,-39.9167,30.52,51,11,6.51,BR,1662901754
San Patricio,28.017,-97.5169,28.24,75,0,1.04,US,1662901755
Torbay,47.6666,-52.7314,15.42,97,100,14.4,CA,1662902020
Svetlaya,46.5389,138.3297,14.71,91,93,3.37,RU,1662901757
Urcos,-13.6861,-71.6228,11.94,67,9,1.05,PE,1662901758
Umm Kaddadah,13.6017,26.6876,35.61,26,100,2.81,SD,1662901759
North Myrtle Beach,33.816,-78.68,29.03,92,40,3.09,US,1662902021
Klaksvík,62.2266,-6.589,12.51,96,100,11.94,FO,1662902022
La Ronge,55.1001,-105.2842,10.12,87,75,4.12,CA,1662902022
Mataura,-46.1927,168.8643,4.2,94,100,1.54,NZ,1662901761
New Norfolk,-42.7826,147.0587,7.72,73,58,1.79,AU,1662902023
Ketchikan,55.3422,-131.6461,12.99,76,0,3.09,US,1662902023
Salalah,17.0151,54.0924,28.05,83,40,5.66,OM,1662901763
Port Keats,-14.25,129.55,24.75,86,0,2.07,AU,1662901763
La Libertad,-2.2333,-80.9,18.81,94,100,3.09,EC,1662902024
Bhan,26.5583,67.7214,39.55,29,77,3.05,PK,1662901764
Hithadhoo,-0.6,73.0833,27.88,71,16,6.56,MV,1662901765
Anadyr,64.75,177.4833,5.28,75,75,1.0,RU,1662902024
Roald,62.5833,6.1333,16.06,72,75,1.54,NO,1662901766
Fendou,46.65,124.8667,20.33,54,28,4.37,CN,1662902025
Mahébourg,-20.4081,57.7,23.16,64,40,6.69,MU,1662902025
Kaitangata,-46.2817,169.8464,6.15,95,100,2.08,NZ,1662902025
Muros,42.7762,-9.0603,29.27,66,100,3.52,ES,1662902026
Antofagasta,-23.65,-70.4,14.6,70,39,4.56,CL,1662901769
Blagoyevo,63.3667,47.9167,9.43,85,100,1.58,RU,1662901771
Myre,69.1036,15.9492,11.68,82,100,10.28,NO,1662901771
Thompson,55.7435,-97.8558,10.09,76,20,3.6,CA,1662902027
Rodrigues Alves,-7.738,-72.6509,24.27,87,91,1.4,BR,1662901773
Saint-Augustin,51.226,-58.6502,16.04,58,0,2.54,CA,1662902027
Chokurdakh,70.6333,147.9167,4.39,83,100,1.49,RU,1662901774
Tilaran,10.4703,-84.9671,23.37,91,97,2.81,CR,1662901775
Barrow,71.2906,-156.7887,1.01,93,100,6.17,US,1662902028
Konëvo,62.1215,39.3192,14.21,54,72,1.94,RU,1662901778
Ailigandí,9.2333,-78.0167,26.42,85,99,1.62,PA,1662901778
Futog,45.2419,19.707,19.42,44,32,3.58,RS,1662902029
Vorţa,46.0167,22.6833,20.18,55,100,5.55,RO,1662901780
Presidencia Roque Sáenz Peña,-26.7852,-60.4388,15.44,34,0,3.4,AR,1662902029
Severo-Kuril'sk,50.6789,156.125,11.66,80,9,6.69,RU,1662902030
Seymchan,62.8833,152.4333,5.02,84,32,0.39,RU,1662901782
Bereda,43.2686,-7.5406,32.86,31,44,2.25,ES,1662902030
Geraldton,-28.7667,114.6,13.23,94,0,2.57,AU,1662901812
Andenes,69.3143,16.1194,10.52,87,100,8.75,NO,1662901784
Broome,42.2506,-75.833,19.69,81,100,1.54,US,1662901784
Quatre Cocos,-20.2078,57.7625,22.83,72,27,7.01,MU,1662901784
Trzcianka,53.0406,16.4563,19.13,58,88,4.48,PL,1662902019
Nortelândia,-14.4547,-56.8028,32.12,28,93,1.71,BR,1662902032
Saint-Philippe,-21.3585,55.7679,23.77,73,24,5.18,RE,1662901787
Talcahuano,-36.7167,-73.1167,9.82,87,100,1.54,CL,1662901788
Qaanaaq,77.484,-69.3632,3.2,95,100,3.63,GL,1662901788
Coquimbo,-29.9533,-71.3436,12.85,82,75,1.03,CL,1662902033
Tura,25.5198,90.2201,23.53,92,88,2.56,IN,1662901800
Alofi,-19.0595,-169.9187,24.35,81,100,6.14,NU,1662901912
Pentecoste,-3.7928,-39.2703,31.45,43,42,3.65,BR,1662902034
Kluang,2.0251,103.3328,23.82,91,100,0.65,MY,1662901996
Cape Town,-33.9258,18.4232,17.93,60,100,3.58,ZA,1662901751
Omboué,-1.5746,9.2618,26.61,69,59,5.04,GA,1662901794
Jhajha,24.7667,86.3667,26.41,86,100,5.12,IN,1662902035
Airai,-8.9266,125.4092,15.4,90,22,0.53,TL,1662901795
Bethel,41.3712,-73.414,22.2,83,75,0.0,US,1662901796
Deputatsky,69.3,139.9,0.28,80,91,2.5,RU,1662901796
Upernavik,72.7868,-56.1549,4.73,97,100,5.76,GL,1662901798
Honningsvåg,70.9821,25.9704,6.86,87,100,3.6,NO,1662902037
Altay,47.8667,88.1167,19.82,44,100,1.64,CN,1662901800
Zaraza,9.3503,-65.3245,27.79,69,0,1.72,VE,1662902037
Katsuura,35.1333,140.3,24.59,87,100,8.42,JP,1662902038
Turukhansk,65.8167,87.9833,3.26,67,20,3.22,RU,1662902038
Celano,42.0855,13.5398,26.45,41,0,1.79,IT,1662901961
Port Alfred,-33.5906,26.891,19.54,70,100,4.92,ZA,1662902039
Namatanai,-3.6667,152.4333,26.26,70,10,5.06,PG,1662902039
Suleja,9.1758,7.1808,23.03,88,96,2.78,NG,1662902039
Bozdar Wada,27.1828,68.636,38.94,32,0,2.81,PK,1662901806
Isangel,-19.55,169.2667,23.25,88,6,2.61,VU,1662901806
Troitskoye,52.9821,84.6757,12.0,95,100,3.76,RU,1662902040
Ancud,-41.8697,-73.8203,9.01,91,100,3.01,CL,1662901776
Puerto Madryn,-42.7692,-65.0385,14.6,32,0,5.94,AR,1662901808
Acajutla,13.5928,-89.8275,25.37,84,100,1.59,SV,1662902041
Damietta,31.4165,31.8133,29.54,52,0,5.73,EG,1662901810
Saint-Joseph,-21.3667,55.6167,22.21,72,40,4.2,RE,1662902042
Samandağ,36.0842,35.9771,31.29,46,0,3.98,TR,1662901811
Pangkalanbuun,-2.6833,111.6167,24.01,93,100,1.26,ID,1662901812
Port Elizabeth,-33.918,25.5701,18.16,68,20,12.86,ZA,1662901812
Turan,16.0678,108.2208,28.99,79,20,1.54,VN,1662902027
Hamilton,39.1834,-84.5333,21.15,94,100,1.54,US,1662901783
Turan,16.0678,108.2208,28.99,79,20,1.54,VN,1662902027
Bambous Virieux,-20.3428,57.7575,23.14,64,40,6.69,MU,1662902044
Pervomays'k,48.0443,30.8507,16.86,85,100,2.96,UA,1662902044
Los Andes,-32.8337,-70.5983,7.23,71,40,1.15,CL,1662901815
Rawson,-43.3002,-65.1023,12.92,44,2,4.99,AR,1662901816
Lata,40.1629,-8.3327,31.15,45,100,4.48,PT,1662901816
Samarai,-10.6167,150.6667,26.82,85,15,4.97,PG,1662902046
Hilo,19.7297,-155.09,22.93,73,0,3.09,US,1662901817
Jalu,29.0331,21.5482,36.52,19,0,4.51,LY,1662901818
Cherskiy,68.75,161.3,6.09,83,100,3.07,RU,1662902047
Kahului,20.8947,-156.47,26.02,68,0,2.68,US,1662901819
Tuktoyaktuk,69.4541,-133.0374,2.41,91,96,2.83,CA,1662901819
Pundaguitan,6.3711,126.1689,28.76,70,83,3.69,PH,1662901820
Torbat-e Jām,35.244,60.6225,22.0,24,0,9.54,IR,1662901820
Butaritari,3.0707,172.7902,27.37,69,55,6.18,KI,1662902048
Noshiro,40.2039,140.0242,20.22,79,99,3.67,JP,1662901821
Tasiilaq,65.6145,-37.6368,6.09,73,95,2.63,GL,1662902049
Goderich,43.7501,-81.7165,21.18,78,100,3.09,CA,1662902049
Tougue,11.4667,-11.6,23.19,88,94,1.78,GN,1662901823
Zorritos,-3.6805,-80.6782,21.16,76,34,2.97,PE,1662901824
Snåase,64.2457,12.3778,12.67,51,86,2.81,NO,1662901824
Athens,37.9795,23.7162,36.32,40,20,6.69,GR,1662902027
Hobyo,5.3505,48.5268,27.19,72,21,12.99,SO,1662902051
Caernarfon,53.1413,-4.2702,20.9,68,20,7.2,GB,1662901825
Saint Paul Harbor,57.79,-152.4072,11.73,87,100,0.0,US,1662902051
Baracoa,20.3467,-74.4958,28.9,76,26,4.31,CU,1662902051
Alenquer,-1.9417,-54.7383,31.66,43,9,1.53,BR,1662901826
Sioux Lookout,50.1001,-91.917,8.91,71,1,1.7,CA,1662901827
Kiryat Gat,31.61,34.7642,34.11,34,0,5.6,IL,1662901783
Encruzilhada do Sul,-30.5439,-52.5219,11.26,56,0,2.14,BR,1662901828
Farīdpur,23.6,89.8333,25.35,92,100,7.17,BD,1662901867
Pierre,44.3683,-100.351,10.59,82,0,2.24,US,1662901830
Socorro,31.6546,-106.3033,22.43,58,75,8.75,US,1662901830
Chino Valley,34.7575,-112.4538,17.08,95,0,2.57,US,1662902053
Owando,-0.4819,15.8999,26.65,72,100,1.67,CG,1662901831
Adrar,20.5022,-10.0711,37.99,22,42,3.79,MR,1662901831
Inuvik,68.3499,-133.7218,3.48,87,100,2.06,CA,1662902054
Plymouth,41.8334,-70.8328,23.26,75,0,1.54,US,1662902054
Lashio,22.9333,97.75,19.91,98,99,0.11,MM,1662902055
Sinnamary,5.3833,-52.95,28.87,66,89,2.36,GF,1662901834
Tegul'det,57.3064,88.1667,8.91,80,97,1.94,RU,1662902055
Nishihara,26.1842,127.7558,28.03,92,75,5.66,JP,1662902056
Fuling,29.7022,107.3919,26.05,64,18,1.22,CN,1662902029
Sisimiut,66.9395,-53.6735,7.36,83,100,13.98,GL,1662902057
Te Anau,-45.4167,167.7167,4.8,88,100,0.72,NZ,1662901826
Viedma,-40.8135,-62.9967,15.71,21,0,6.54,AR,1662902030
San Quintín,30.4833,-115.95,22.43,87,0,2.21,MX,1662901837
Cícero Dantas,-10.6,-38.3833,24.82,62,85,2.8,BR,1662902058
Port Hardy,50.6996,-127.4199,11.0,82,100,1.65,CA,1662901838
Vao,-22.6667,167.4833,22.59,81,21,1.77,NC,1662901839
Erenhot,43.6475,111.9767,26.04,20,84,3.83,CN,1662901839
Bam,29.106,58.357,36.2,7,1,4.49,IR,1662901839
Lofthus,59.9468,10.8018,18.61,71,38,1.74,NO,1662901840
Alice Springs,-23.7,133.8833,14.75,88,93,6.17,AU,1662902059
Inhambane,-23.865,35.3833,26.36,59,0,6.58,MZ,1662902060
São Filipe,14.8961,-24.4956,26.66,84,52,2.69,CV,1662902060
Khatanga,71.9667,102.5,2.82,72,100,2.24,RU,1662901841
Sitka,57.0531,-135.33,8.94,87,75,0.0,US,1662901842
Pangnirtung,66.1451,-65.7125,6.25,97,100,3.75,CA,1662902062
Nagai,38.1036,140.035,16.94,97,62,0.76,JP,1662901844
Ambovombe,-25.1667,46.0833,25.42,52,0,4.48,MG,1662901844
Clarence Town,-32.5833,151.7833,14.41,65,68,3.98,AU,1662902063
Owen Sound,44.5672,-80.9435,21.29,84,99,2.24,CA,1662902058
Los Zacatones,22.95,-102.05,14.2,80,6,5.55,MX,1662901846
Pirovskoye,57.6267,92.2658,10.3,74,100,1.33,RU,1662901846
Longyearbyen,78.2186,15.6401,3.91,70,75,6.69,SJ,1662902064
Mahibadhoo,3.7833,72.9667,27.49,80,54,6.06,MV,1662902064
Gorontalo,0.5412,123.0595,24.11,95,100,1.09,ID,1662901847
Port Hedland,-20.3167,118.5667,20.03,88,0,1.54,AU,1662902065
Raudeberg,61.9875,5.1352,15.37,57,100,3.03,NO,1662902065
Punta Alta,-38.8759,-62.0736,14.51,34,0,4.45,AR,1662901848
Pochutla,15.7432,-96.4661,23.23,88,100,2.69,MX,1662901849
Constitución,-35.3333,-72.4167,10.86,75,100,3.57,CL,1662901815
Nanortalik,60.1432,-45.2371,6.92,81,77,3.44,GL,1662901850
Saint Anthony,45.0205,-93.218,12.14,92,0,1.54,US,1662902066
Kastamonu Province,41.5,33.6667,27.62,32,1,5.31,TR,1662901851
Touros,-5.1989,-35.4608,27.96,60,58,7.07,BR,1662902067
Marawi,7.9986,124.2928,20.61,94,100,0.91,PH,1662901851
Korla,41.7597,86.1469,29.98,14,22,0.51,CN,1662901852
Banyo,6.75,11.8167,24.07,76,89,1.96,CM,1662902068
Våler,60.6785,11.8331,18.76,45,4,0.93,NO,1662902068
Port-Gentil,-0.7193,8.7815,27.98,69,75,8.23,GA,1662901852
Conde,-7.2597,-34.9075,26.7,74,75,5.14,BR,1662901853
Hasaki,35.7333,140.8333,23.22,86,95,8.54,JP,1662902051
Bathsheba,13.2167,-59.5167,31.34,66,20,6.69,BB,1662901854
Araouane,18.9048,-3.5265,37.81,25,34,2.43,ML,1662902069
Agua Prieta,31.3,-109.5667,19.1,66,4,1.4,MX,1662902070
Lagoa,39.05,-27.9833,22.1,80,99,12.61,PT,1662901857
Dunedin,-45.8742,170.5036,8.22,89,100,2.98,NZ,1662901835
Doha,25.2867,51.5333,41.17,49,78,4.12,QA,1662901814
Cabo San Lucas,22.8909,-109.9124,25.28,89,9,4.01,MX,1662901870
Caucayá,-0.1934,-74.7819,23.12,86,34,0.45,CO,1662902072
Altamira,-3.2033,-52.2064,29.05,84,75,4.12,BR,1662902056
Flagstaff,35.1981,-111.6513,14.81,68,88,0.9,US,1662902072
Ishigaki,24.3448,124.1572,26.3,91,100,22.84,JP,1662901848
Grindavik,63.8424,-22.4338,10.26,81,40,9.26,IS,1662902073
Nouadhibou,20.931,-17.0347,24.11,78,16,10.26,MR,1662901861
Mpika,-11.8343,31.4529,28.75,22,2,4.24,ZM,1662901861
Chimoio,-19.1164,33.4833,31.84,15,0,3.01,MZ,1662902074
Poronaysk,49.2167,143.1167,13.74,84,100,1.22,RU,1662901863
Ahipara,-35.1667,173.1667,14.58,93,100,4.14,NZ,1662902075
Necochea,-38.5473,-58.7368,12.36,47,0,4.27,AR,1662902044
Westport,41.1415,-73.3579,23.74,81,0,1.54,US,1662901866
Arlit,18.7369,7.3853,37.98,11,42,1.73,NE,1662901867
Pisco,-13.7,-76.2167,15.03,77,15,0.51,PE,1662902076
Urusha,54.05,122.9,6.98,71,100,1.66,RU,1662902076
Ulaanbaatar,47.9077,106.8832,11.07,71,0,3.0,MN,1662901873
Barcelos,41.5388,-8.6151,29.95,53,100,4.14,PT,1662902077
Bennettsville,34.6174,-79.6848,25.61,99,100,0.0,US,1662902078
Youhao,47.8667,128.8333,17.64,93,99,1.14,CN,1662902078
Narsingdi,23.9208,90.7181,30.01,87,98,6.07,BD,1662901836
Petropavlovskoye,52.0712,84.107,13.22,83,100,2.96,RU,1662901871
Estelle,29.8458,-90.1067,27.22,84,20,0.0,US,1662902079
Kudahuvadhoo,2.6708,72.8944,27.96,75,64,6.65,MV,1662901873
San Cristobal,7.7669,-72.225,23.1,65,33,2.08,VE,1662902080
Sysert',56.4953,60.8192,11.99,69,100,1.79,RU,1662902080
Melfort,52.8667,-104.6177,8.07,61,0,4.12,CA,1662901873
Naze,28.3667,129.4833,27.51,84,100,5.59,JP,1662902081
Tautira,-17.7333,-149.15,25.31,75,32,7.37,PF,1662901874
Kavieng,-2.5744,150.7967,27.86,65,92,7.35,PG,1662901875
Ferme-Neuve,46.7001,-75.4493,17.62,69,100,1.07,CA,1662902081
Xining,36.6167,101.7667,13.23,66,42,1.64,CN,1662901920
Rio Brilhante,-21.8019,-54.5464,24.69,34,14,2.03,BR,1662901876
Kattivākkam,13.2167,80.3167,33.05,66,100,6.57,IN,1662902082
Huarmey,-10.0681,-78.1522,16.85,80,48,3.7,PE,1662901877
Bithūr,26.6333,80.2833,30.74,62,6,4.06,IN,1662901865
Bonthe,7.5264,-12.505,24.72,90,99,4.43,SL,1662902083
Husavik,66.0449,-17.3389,9.61,97,100,1.61,IS,1662901878
Lavrentiya,65.5833,-171.0,5.95,78,100,5.22,RU,1662901879
Omsukchan,62.5333,155.8,4.69,86,100,1.52,RU,1662901879
Soubre,5.7856,-6.6083,29.56,61,92,1.5,CI,1662902084
Bhola District,22.6833,90.65,25.43,94,100,10.38,BD,1662901880
Marsá Maţrūḩ,31.3525,27.2453,28.85,65,0,8.05,EG,1662901881
Gigmoto,13.7796,124.39,27.94,80,18,0.99,PH,1662901881
Dhilwan,31.5169,75.35,29.53,68,0,2.97,IN,1662901881
Coolum Beach,-26.5333,153.1,15.19,68,100,2.47,AU,1662902085
Greenville,35.6127,-77.3663,26.09,96,100,1.54,US,1662901882
Ayan,56.45,138.1667,10.07,74,68,1.81,RU,1662902086
Bucerías,20.75,-105.3333,26.1,100,100,0.0,MX,1662902086
Kaoma,-14.7833,24.8,34.04,6,0,2.88,ZM,1662902087
Narsaq,60.9167,-46.05,5.12,62,93,0.98,GL,1662902087
Nālūt,30.3333,10.85,36.37,15,3,1.1,LY,1662902087
Isparta Province,38.0,31.0,25.68,26,0,1.66,TR,1662901885
Los Llanos de Aridane,28.6585,-17.9182,23.86,88,20,3.13,ES,1662901886
Dikson,73.5069,80.5464,4.12,78,100,10.73,RU,1662901887
Vestmannaeyjar,63.4427,-20.2734,14.55,67,20,10.29,IS,1662902088
Shimoda,34.6667,138.95,23.39,86,11,7.73,JP,1662901870
Biak,-0.9131,122.8766,23.87,88,99,1.96,ID,1662901888
Atar,20.5169,-13.0499,41.48,15,11,5.53,MR,1662901888
Mairang,25.5667,91.6333,16.15,98,70,1.76,IN,1662901889
Clyde River,70.4692,-68.5914,3.13,100,75,1.54,CA,1662902089
Belmonte,-15.8631,-38.8828,25.36,55,20,2.66,BR,1662901889
Klyuchi,52.2667,79.1667,16.49,55,48,8.08,RU,1662901891
Zhangye,38.9342,100.4517,24.61,15,0,6.08,CN,1662901892
Ostrogozhsk,50.8664,39.0756,18.29,25,100,3.88,RU,1662901892
Gua Musang,4.8823,101.9644,22.64,98,97,0.39,MY,1662901892
Kamenka,51.3223,42.7678,17.35,31,100,3.95,RU,1662901893
Broken Hill,-31.95,141.4333,12.16,50,5,2.75,AU,1662901894
Asău,46.4333,26.4,23.51,42,96,5.76,RO,1662901894
Nampa,43.5407,-116.5635,15.78,48,0,1.54,US,1662902062
Beringovskiy,63.05,179.3167,7.34,90,100,9.48,RU,1662901895
Kulhudhuffushi,6.6221,73.07,26.87,82,76,7.22,MV,1662902092
Dubrovka,53.6907,33.5071,6.67,95,100,7.69,RU,1662901895
Bandarbeyla,9.4942,50.8122,28.46,68,16,14.46,SO,1662901896
Denpasar,-8.65,115.2167,26.81,88,20,4.12,ID,1662901539
Rosetta,31.4044,30.4164,29.16,57,0,6.01,EG,1662902093
Kawalu,-7.3817,108.2082,22.64,97,99,0.77,ID,1662901897
Terrace Bay,48.7834,-87.1,11.91,72,99,2.0,CA,1662902094
Ponferrada,42.5466,-6.5962,33.49,29,97,0.89,ES,1662901899
Halvad,23.0167,71.1833,31.6,64,92,5.28,IN,1662902095
Landerneau,48.4525,-4.2525,24.49,69,75,4.63,FR,1662902095
Yulara,-25.2406,130.9889,13.79,75,0,6.92,AU,1662901900
Laguna,38.421,-121.4238,23.38,60,0,1.54,US,1662902096
Kavaratti,10.5669,72.642,26.9,86,100,8.8,IN,1662901901
Port Blair,11.6667,92.75,27.72,78,26,4.8,IN,1662902097
Sohag,26.557,31.6948,37.76,14,0,7.36,EG,1662901902
Murray Bridge,-35.1167,139.2667,11.18,89,15,3.33,AU,1662902097
Batemans Bay,-35.7167,150.1833,8.26,76,0,2.72,AU,1662901902
Praia da Vitória,38.7333,-27.0667,24.14,73,40,12.17,PT,1662902098
Ostrovnoy,68.0531,39.5131,10.94,73,100,3.82,RU,1662902098
Shangrao,28.4532,117.9686,25.08,53,16,1.51,CN,1662901381
Pallasovka,50.05,46.8833,17.92,32,84,2.45,RU,1662901904
Kropotkin,45.4375,40.5756,26.38,32,59,7.58,RU,1662901842
Buraidah,26.326,43.975,42.25,7,4,3.53,SA,1662902099
Athabasca,54.7169,-113.2854,2.23,81,0,1.93,CA,1662901906
Ambilobe,-13.2,49.05,27.82,47,99,1.94,MG,1662902100
Chapais,49.7834,-74.8492,17.88,68,17,2.32,CA,1662901906
Alyangula,-13.8483,136.4192,24.56,89,1,3.83,AU,1662902100
Mayo,38.8876,-76.5119,22.44,95,100,6.17,US,1662901880
Storforshei,66.4043,14.5233,11.48,76,75,2.06,NO,1662901908
Saint-François,46.4154,3.9054,24.26,43,0,2.57,FR,1662901910
Kumul,42.8,93.45,29.89,15,0,1.1,CN,1662902101
Vardø,70.3705,31.1107,6.99,93,75,2.06,NO,1662901911
Rapid Valley,44.0625,-103.1463,11.19,74,0,4.02,US,1662901911
Bowen,-20.0167,148.2333,19.22,77,0,4.14,AU,1662902102
Litovko,49.2361,135.1742,15.03,89,100,0.78,RU,1662902103
Christchurch,-43.5333,172.6333,10.51,93,100,3.6,NZ,1662901831
Lázaro Cárdenas,17.9583,-102.2,25.08,87,96,2.69,MX,1662901914
Juegang,32.3174,121.1855,23.88,92,1,4.35,CN,1662901914
Havre-St-Pierre,50.2334,-63.5986,14.2,100,100,2.06,CA,1662901914
Maoming,21.65,110.9,26.74,80,98,2.02,CN,1662901914
Haverhill,42.7762,-71.0773,22.95,82,0,1.54,US,1662902104
Mangai,-4.05,19.5333,30.56,48,96,1.76,CD,1662902105
Taitung City,22.7583,121.1444,26.15,89,75,1.54,TW,1662902105
Weligama,5.9667,80.4167,25.84,86,100,4.81,LK,1662901917
Beisfjord,68.3751,17.5988,11.14,79,100,2.2,NO,1662902106
Charlestown,-32.95,151.6667,14.34,68,3,3.9,AU,1662901918
Nantucket,41.2835,-70.0995,25.06,59,0,2.06,US,1662902107
Poum,-20.2333,164.0167,24.63,80,7,3.24,NC,1662902107
Baijiantan,45.6333,85.1833,26.02,36,99,13.39,CN,1662901920
Marzuq,14.4,46.4667,33.51,23,86,3.71,YE,1662902108
Dicabisagan,17.0818,122.4157,26.1,87,100,0.41,PH,1662902108
Saint-Pierre,-21.3393,55.4781,22.82,64,100,1.54,RE,1662901921
Fukuechō,32.6881,128.8419,25.53,89,100,7.04,JP,1662902108
La Bañeza,42.3003,-5.8977,30.94,20,90,5.73,ES,1662901922
Sibu,2.3,111.8167,24.04,92,100,0.62,MY,1662901923
Kalianget,-7.05,113.9333,27.5,76,62,4.63,ID,1662902109
Glendive,47.1053,-104.7125,10.1,66,0,3.6,US,1662902110
Namtsy,62.7161,129.6658,2.58,80,99,2.55,RU,1662902111
Petropavlovsk-Kamchatskiy,53.0452,158.6483,11.33,82,75,1.0,RU,1662902111
Bensonville,6.4461,-10.6125,26.73,80,92,4.03,LR,1662901925
Katherine,-14.4667,132.2667,27.18,74,75,1.54,AU,1662902112
Coyhaique,-45.5752,-72.0662,7.97,76,100,2.06,CL,1662901994
Waddān,29.1614,16.139,35.94,17,0,1.83,LY,1662902112
Kibala,9.1104,18.3463,27.93,75,97,1.51,TD,1662902113
Haines Junction,60.7522,-137.5108,-5.03,93,6,1.03,CA,1662902113
Bahir Dar,11.5936,37.3908,20.59,76,96,1.68,ET,1662901928
Beidao,34.5686,105.8933,18.47,81,0,2.04,CN,1662901929
Polyarny,69.1989,33.4478,8.3,94,100,2.95,RU,1662901824
Beruwala,6.4788,79.9828,25.94,86,100,3.0,LK,1662901929
Chui,-33.6971,-53.4616,10.98,63,0,1.77,UY,1662902115
Welver,51.6167,7.9667,22.17,80,86,2.47,DE,1662901930
Dalbandin,28.8947,64.4101,37.43,8,0,3.43,PK,1662902116
Verkhniy Lomov,53.4678,43.5511,16.26,36,47,2.27,RU,1662902116
Guerrero Negro,27.9769,-114.0611,23.25,86,5,2.27,MX,1662901932
Chara,56.9064,118.2631,6.22,65,76,0.8,RU,1662901932
Rawlins,41.7911,-107.2387,-1.06,59,0,0.0,US,1662902117
Moree,-29.4667,149.85,10.84,68,100,3.74,AU,1662901933
Oussouye,12.485,-16.5469,28.53,66,94,2.76,SN,1662902118
São João da Barra,-21.6403,-41.0511,22.05,74,100,7.88,BR,1662902118
Vila Franca do Campo,37.7167,-25.4333,24.0,80,100,9.27,PT,1662902118
Yeppoon,-23.1333,150.7333,16.88,75,0,0.68,AU,1662901934
Myrtle Beach,33.6891,-78.8867,29.02,94,75,3.6,US,1662902061
Chester,40.1254,-75.8749,20.53,97,75,1.54,US,1662901934
Santa Cruz de la Sierra,-17.8,-63.1667,23.03,25,75,4.12,BO,1662902119
Gizo Government Station,-8.103,156.8419,27.78,70,1,2.84,SB,1662901935
Ust-Tsilma,65.441,52.1498,11.46,64,95,3.04,RU,1662901935
Ilula,-7.6766,36.0366,22.34,49,87,3.42,TZ,1662902120
Mount Isa,-20.7333,139.5,17.87,63,100,4.12,AU,1662902120
Indiaroba,-11.5192,-37.5117,26.43,64,90,2.92,BR,1662901936
Aksu,41.1231,80.2644,29.06,13,1,3.54,CN,1662901936
Kota Belud,6.351,116.4305,24.42,95,100,1.74,MY,1662902121
Quthing,-30.4,27.7003,25.39,13,100,10.64,LS,1662902121
Zapadnaya Dvina,56.259,32.0745,6.95,95,100,5.45,RU,1662902121
Hualmay,-11.0964,-77.6139,16.28,79,41,3.72,PE,1662901937
Vila Velha,-20.3297,-40.2925,23.97,83,100,4.63,BR,1662902122
Tot'ma,59.9747,42.7642,11.67,62,100,1.38,RU,1662902123
Beloha,-25.1667,45.05,27.35,34,0,5.66,MG,1662902124
Belém,-1.4558,-48.5044,31.02,58,0,3.09,BR,1662901939
Hirara,24.8,125.2833,27.55,82,100,14.68,JP,1662901940
Ciénaga,11.007,-74.2476,29.07,70,40,2.06,CO,1662902124
Ust-Maya,60.4167,134.5333,1.96,86,11,1.3,RU,1662902125
Darhan,49.4867,105.9228,14.01,58,88,0.6,MN,1662902125
Monteagudo,-19.8167,-63.9833,18.7,27,4,2.22,BO,1662902125
Krasnyy Chikoy,50.3643,108.7512,12.62,66,18,0.41,RU,1662901943
Sangar,63.9242,127.4739,1.43,81,70,1.41,RU,1662901943
Taoudenni,22.6783,-3.9836,43.26,11,15,2.58,ML,1662901944
Forsytheganj,52.6333,29.7333,13.97,85,100,3.97,BY,1662901944
Basoko,1.2391,23.616,27.62,73,56,3.0,CD,1662901945
Ca Mau,9.1769,105.15,24.45,94,100,1.62,VN,1662902127
Cidreira,-30.1811,-50.2056,13.68,57,0,1.91,BR,1662902127
Kuruman,-27.4524,23.4325,29.82,10,4,10.88,ZA,1662902127
Provincia di Imperia,43.9667,7.7833,25.19,57,83,1.89,IT,1662901946
Margate,51.3813,1.3862,22.15,72,71,3.85,GB,1662901839
Payo,-3.7508,103.6372,23.58,95,100,1.53,ID,1662902128
Henties Bay,-22.116,14.2845,15.81,76,20,5.31,NA,1662902128
Vrangel',42.7297,133.0839,16.64,73,100,1.04,RU,1662901947
Zyryanovsk,49.7386,84.2719,15.78,82,100,2.52,KZ,1662901948
Tagusao,9.1924,117.8141,26.69,82,100,1.88,PH,1662901948
Shellbrook,53.2168,-106.4011,3.57,49,0,2.23,CA,1662902129
Waipawa,-41.4122,175.5153,8.29,95,100,2.08,NZ,1662901949
Nyzhni Sirohozy,46.8484,34.3804,20.24,48,100,3.71,UA,1662902130
Sambava,-14.2667,50.1667,23.6,71,10,5.82,MG,1662901950
Linkou,45.3,130.2833,17.92,89,63,0.68,CN,1662901951
Båtsfjord,70.6345,29.7185,6.96,93,100,2.57,NO,1662901952
Coahuayana Viejo,18.7333,-103.6833,24.28,93,100,1.75,MX,1662902131
Bariloche,-41.1456,-71.3082,4.54,82,100,3.57,AR,1662901860
Kuytun,54.3419,101.5036,10.86,75,55,2.71,RU,1662901954
Nizhniy Kuranakh,58.8353,125.4869,3.67,90,35,1.25,RU,1662901954
Ngunguru,-35.6167,174.5,15.26,90,100,5.63,NZ,1662902132
Izazi,-7.2,35.7333,33.67,25,50,2.06,TZ,1662902132
Okha,53.5739,142.9478,9.58,61,100,0.7,RU,1662901923
Belaya Gora,68.5333,146.4167,5.99,79,100,2.39,RU,1662902133
Vestmanna,62.1564,-7.1664,11.51,94,100,8.23,FO,1662902133
Cordele,31.9635,-83.7824,22.06,86,100,1.32,US,1662902134
Auki,-8.7676,160.7034,24.51,88,86,2.02,SB,1662901957
Östersund,63.1792,14.6357,13.25,58,20,3.6,SE,1662901957
Aykhal,66.0,111.5,0.66,75,100,2.33,RU,1662901958
Iqaluit,63.7506,-68.5145,5.85,86,75,2.57,CA,1662901958
Menzel Kamel,35.6248,10.6673,30.69,42,0,6.17,TN,1662901958
Nampula,-15.1165,39.2666,31.51,25,42,5.06,MZ,1662902135
Camopi,3.1655,-52.3158,30.42,52,61,1.41,GF,1662901959
Cedar City,37.6775,-113.0619,14.66,82,0,1.54,US,1662901960
Dauphin,51.1494,-100.0502,14.08,47,0,5.14,CA,1662901960
Launceston,-41.45,147.1667,7.11,77,7,6.17,AU,1662902137
Bubaque,11.2833,-15.8333,26.62,78,71,5.32,GW,1662901961
Fort Nelson,58.8053,-122.7002,3.77,87,75,1.03,CA,1662902141
Örnsköldsvik,63.2909,18.7153,14.53,72,100,4.63,SE,1662902144
Gillette,44.2911,-105.5022,7.25,92,0,2.06,US,1662902064
Grand-Bourg,15.8835,-61.3148,29.97,73,28,4.62,GP,1662901963
Verkh-Usugli,52.7,115.1667,8.94,61,91,0.42,RU,1662902145
Payakumbuh,-0.2202,100.6308,22.15,92,100,0.63,ID,1662902146
Shenjiamen,29.9576,122.298,24.77,86,100,5.11,CN,1662902147
Baghdad,33.3406,44.4009,41.95,13,0,2.57,IQ,1662902113
Dwārka,22.2394,68.9678,25.24,94,100,8.67,IN,1662902148
Ringwood,41.1134,-74.2454,22.43,91,100,1.4,US,1662902148
Baturaja,-4.1333,104.1667,24.02,91,100,1.01,ID,1662902149
Atbasar,51.8,68.3333,11.57,63,99,7.53,KZ,1662901967
Purificación,3.8587,-74.9313,27.39,52,42,1.64,CO,1662901968
Tiring,10.8527,122.511,25.36,85,100,2.25,PH,1662901968
Slave Lake,55.2834,-114.769,4.99,93,0,1.03,CA,1662902151
Mossamedes,-15.1961,12.1522,23.15,70,20,7.37,AO,1662902007
Half Moon Bay,37.4636,-122.4286,22.55,85,100,3.6,US,1662902152
Chauk,20.8833,94.8167,24.63,91,100,4.72,MM,1662902153
Oakdale,44.963,-92.9649,11.86,93,0,1.54,US,1662901971
Tashtagol,52.7657,87.8894,11.05,99,100,1.62,RU,1662902111
Lüderitz,-26.6481,15.1594,21.3,48,2,14.22,NA,1662902154
Bahía de Caráquez,-0.6,-80.4167,21.1,83,91,2.69,EC,1662901971
Bulgan,48.8125,103.5347,12.04,83,22,0.99,MN,1662902154
Atambua,-9.1061,124.8925,23.24,82,39,1.12,ID,1662902155
Padang,-0.9492,100.3543,25.99,83,100,1.4,ID,1662901558
Palmas Bellas,9.2319,-80.0867,25.0,85,100,1.86,PA,1662901973
Zelenogorskiy,55.0333,87.0,12.21,59,100,0.9,RU,1662902156
Kiama,-34.6833,150.8667,12.99,59,0,5.36,AU,1662901974
Bireun,5.203,96.7009,26.04,81,100,1.15,ID,1662901974
Chhuīkhadān,21.5333,80.9833,24.67,90,98,2.74,IN,1662901975
Port Lincoln,-34.7333,135.8667,11.04,80,98,2.65,AU,1662902157
Petropavlovka,50.6114,105.3196,13.27,66,78,0.28,RU,1662901976
Tromsø,69.6496,18.957,9.01,87,75,5.14,NO,1662902158
Istok,42.7808,20.4875,22.96,59,56,2.09,XK,1662902158
Brigg,53.552,-0.4921,20.41,82,40,3.6,GB,1662901977
Marsabit,2.3284,37.9899,27.03,32,14,8.03,KE,1662901893
Kenai,60.5544,-151.2583,8.97,97,100,1.54,US,1662901977
San Jerónimo,-11.9472,-75.2829,12.69,57,98,0.56,PE,1662901978
Beaumont,30.0861,-94.1019,23.99,91,0,2.06,US,1662901978
Almaznyy,48.0448,40.045,21.08,19,100,7.82,RU,1662901979
Mitú,1.1983,-70.1733,23.82,86,28,1.03,CO,1662901979
Straelen,51.45,6.2667,22.24,82,40,1.54,DE,1662901980
Koutiala,12.3917,-5.4642,28.52,68,100,3.65,ML,1662901980
Ariano Irpino,41.1489,15.0833,25.99,34,2,4.29,IT,1662901981
Augustów,53.8432,22.9798,7.07,96,100,4.99,PL,1662901981
Cayenne,4.9333,-52.3333,29.02,74,0,3.09,GF,1662901793
Viet Tri,21.3019,105.4308,28.97,86,100,1.27,VN,1662901982
Colares,38.7992,-9.4469,26.55,71,20,4.63,PT,1662901982
Nagua,19.3832,-69.8474,27.17,94,40,0.0,DO,1662901983
Sesheke,-17.4759,24.2968,34.32,8,0,3.07,ZM,1662901984
Malartic,48.1335,-78.1328,16.06,99,18,1.63,CA,1662901984
Hashtrūd,37.4779,47.0508,25.78,21,0,2.46,IR,1662901985
Homer,59.6425,-151.5483,11.13,93,100,0.0,US,1662901985
Khomutovo,52.4658,104.4025,9.34,67,92,2.16,RU,1662901985
Sakakah,29.9697,40.2064,42.39,7,0,3.61,SA,1662901786
Dudinka,69.4058,86.1778,4.79,84,100,3.12,RU,1662901986
Olafsvik,64.8945,-23.7142,9.41,64,1,4.68,IS,1662901986
Adwa,14.1646,38.8955,26.44,35,99,4.43,ET,1662901987
Catherinas Lust,6.4,-57.6,28.76,67,1,2.58,GY,1662901987
Gashua,12.871,11.0482,30.14,51,97,1.02,NG,1662901988
Hofn,64.2539,-15.2082,13.01,76,75,4.63,IS,1662901989
Wakkanai,45.4094,141.6739,18.1,72,100,3.0,JP,1662901990
Tazovsky,67.4667,78.7,3.59,86,100,3.18,RU,1662901990
Lively,46.4334,-81.1498,18.51,94,92,2.16,CA,1662901990
Finschhafen,-6.6024,147.8681,26.03,83,100,1.68,PG,1662901991
Kalāleh,37.3807,55.4916,33.2,22,20,2.06,IR,1662901991
Okhotsk,59.3833,143.3,8.55,50,6,10.54,RU,1662901991
Jaisalmer,26.9147,70.9181,35.22,40,62,8.75,IN,1662901991
Severnyy,50.677,36.5532,11.02,71,75,3.0,RU,1662901992
Buckeye,33.3703,-112.5838,26.96,76,0,1.33,US,1662901930
Bilibino,68.0546,166.4372,8.83,60,100,1.83,RU,1662901993
City of Passi,11.15,122.65,27.57,90,97,0.92,PH,1662901993
Departamento de Maldonado,-34.6667,-54.9167,11.66,54,0,1.76,UY,1662901993
General Salgado,-20.6483,-50.3606,29.25,40,0,3.31,BR,1662901993
Yar-Sale,66.8333,70.8333,8.14,71,100,5.86,RU,1662901994
Oyama,36.3,139.8,26.99,68,100,2.14,JP,1662901994
Tete,-16.1564,33.5867,35.5,19,0,3.22,MZ,1662901994
Benjamín Aceval,-24.9667,-57.5667,17.08,31,1,1.67,PY,1662901995
Moquegua,-17.1956,-70.9353,18.68,35,7,2.17,PE,1662901995
Zhigalovo,54.8097,105.1578,9.0,71,0,1.65,RU,1662901996
Chernyshevskiy,63.0128,112.4714,5.19,89,100,2.41,RU,1662901996
Matagalpa,12.9256,-85.9175,23.45,100,75,0.0,NI,1662901997
Galle,6.0367,80.217,26.0,87,100,4.73,LK,1662901802
Grand Forks,47.9417,-97.4337,6.96,81,0,2.57,US,1662901908
Marquette,46.5333,-87.6335,12.69,95,100,2.5,US,1662901998
Dickson,36.077,-87.3878,21.36,99,100,3.6,US,1662901999
El Vigia,8.6219,-71.6506,28.53,62,75,1.27,VE,1662901999
Laela,-8.5667,32.05,25.66,34,90,0.82,TZ,1662901999
