,City,Lat,Lng,Max Temp,Humidity,Cloudiness,Wind Speed,Country,Date
0,Hermanus,-34.4187,19.2345,287.0,67,100,5.36,ZA,1662890133
1,Cururupu,-1.8283,-44.8683,298.22,86,10,1.65,BR,1662890134
2,Vélez-Málaga,36.7726,-4.1005,305.36,46,80,3.15,ES,1662890134
3,Faya,18.3851,42.4509,302.21,20,51,3.39,SA,1662890135
4,Castro,-24.7911,-50.0119,285.6,97,100,2.63,BR,1662890135
5,Hithadhoo,-0.6,73.0833,301.06,70,53,6.34,MV,1662890135
6,Busselton,-33.65,115.3333,287.04,80,22,0.86,AU,1662890075
7,Los Llanos de Aridane,28.6585,-17.9182,296.01,82,0,3.09,ES,1662890136
8,Trzebnica,51.3108,17.0633,292.19,89,100,5.21,PL,1662890136
9,Talara,-4.5772,-81.2719,290.13,85,62,7.06,PE,1662890134
10,Bluff,-46.6,168.3333,281.42,84,48,3.72,NZ,1662890137
11,Alcântara,-2.4089,-44.4147,300.26,82,1,3.89,BR,1662890137
12,Saint Paul Harbor,57.79,-152.4072,283.71,96,100,4.22,US,1662890138
13,Gladstone,-23.85,151.25,292.11,63,3,1.03,AU,1662890138
14,Ribeira Brava,32.65,-17.0667,298.55,93,100,3.36,PT,1662890138
15,Bethel,41.3712,-73.414,293.08,84,94,0.91,US,1662890139
16,Benghazi,32.1167,20.0667,301.78,58,0,4.1,LY,1662890139
17,Punta Arenas,-53.15,-70.9167,276.21,81,0,7.72,CL,1662890139
18,Ushuaia,-54.8,-68.3,278.96,56,20,2.57,AR,1662890138
19,Salinas,36.6777,-121.6555,295.77,81,99,0.65,US,1662890140
20,Bereda,43.2686,-7.5406,300.05,46,73,1.41,ES,1662890140
21,College,64.8569,-147.8028,280.32,87,95,1.56,US,1662890141
22,Clyde River,70.4692,-68.5914,275.28,100,100,0.0,CA,1662890141
23,Longyearbyen,78.2186,15.6401,273.56,78,81,2.77,SJ,1662890142
24,Basco,20.4487,121.9702,301.23,75,100,10.18,PH,1662890057
25,Ashland,40.8167,-82.2665,291.45,95,100,2.37,US,1662890142
26,Manggar,-2.8833,108.2667,301.28,73,39,3.48,ID,1662890143
27,Sitka,57.0531,-135.33,282.25,91,0,1.2,US,1662890143
28,Hobart,-42.8794,147.3294,281.51,64,20,8.23,AU,1662890021
29,Hare Bay,48.8499,-54.0148,285.79,95,100,8.93,CA,1662890143
30,Port Alfred,-33.5906,26.891,294.36,56,99,3.58,ZA,1662890144
31,Acapulco de Juárez,16.8634,-99.8901,298.12,86,100,3.53,MX,1662890144
32,Cidreira,-30.1811,-50.2056,282.74,77,0,2.12,BR,1662890144
33,Viedma,-40.8135,-62.9967,280.55,39,0,4.45,AR,1662890145
34,Airai,-8.9266,125.4092,290.77,78,87,0.89,TL,1662890145
35,Taoudenni,22.6783,-3.9836,313.28,15,8,5.57,ML,1662890146
36,Bambous Virieux,-20.3428,57.7575,298.29,61,20,5.66,MU,1662890147
37,Tuktoyaktuk,69.4541,-133.0374,276.63,88,100,3.84,CA,1662890147
38,Caucaia,-3.7361,-38.6531,299.12,70,75,5.66,BR,1662890073
39,Bathsheba,13.2167,-59.5167,301.49,78,20,6.17,BB,1662890148
40,Coahuayana Viejo,18.7333,-103.6833,298.14,93,100,1.49,MX,1662890148
41,Rikitea,-23.1203,-134.9692,295.47,75,0,4.97,PF,1662890148
42,Boma,7.0805,-2.1697,297.21,79,100,1.28,GH,1662890148
43,Cape Town,-33.9258,18.4232,290.58,62,40,5.66,ZA,1662890054
44,Waitati,-45.75,170.5667,282.48,90,100,2.61,NZ,1662890149
45,Sola,-13.8833,167.55,299.52,78,40,2.57,VU,1662890150
46,Saskylakh,71.9167,114.0833,275.54,81,100,4.03,RU,1662890150
47,Klyuchi,52.2667,79.1667,296.45,26,76,5.72,RU,1662890151
48,Nome,64.5011,-165.4064,280.46,78,100,7.21,US,1662890151
49,Antalaha,-14.9003,50.2788,297.9,64,8,6.06,MG,1662890151
50,Fairbanks,64.8378,-147.7164,280.33,89,95,1.57,US,1662890151
51,Tasiilaq,65.6145,-37.6368,276.64,72,98,2.31,GL,1662890152
52,New Norfolk,-42.7826,147.0587,281.32,77,51,4.02,AU,1662890152
53,San Andrés,12.5847,-81.7006,301.16,83,75,2.57,CO,1662890130
54,Balabac,7.9868,117.0645,301.03,77,100,1.68,PH,1662890153
55,Mataura,-46.1927,168.8643,278.43,98,73,1.56,NZ,1662890153
56,Jamestown,42.097,-79.2353,291.32,74,100,2.06,US,1662890153
57,Hamilton,39.1834,-84.5333,293.95,94,100,2.06,US,1662890154
58,Byron Bay,-28.65,153.6167,290.13,72,92,3.53,AU,1662890071
59,Tūkrah,32.5341,20.5791,302.92,53,0,4.54,LY,1662890154
60,Ilulissat,69.2167,-51.1,277.74,99,100,2.68,GL,1662890156
61,Manokwari,-0.8667,134.0833,299.89,79,97,2.64,ID,1662890156
62,Karpathos,35.507,27.2132,301.13,74,20,10.29,GR,1662890157
63,Damaturu,11.747,11.9608,300.19,67,83,1.87,NG,1662890157
64,Brae,60.3964,-1.353,286.81,74,100,5.09,GB,1662890158
65,Kahului,20.8947,-156.47,299.73,79,16,2.68,US,1662890158
66,Mar del Plata,-38.0023,-57.5575,280.86,72,0,2.68,AR,1662890158
67,Olafsvik,64.8945,-23.7142,281.69,73,4,6.17,IS,1662890159
68,Bulgan,48.8125,103.5347,290.41,68,40,1.73,MN,1662890159
69,Ellisras,-23.6649,27.7443,306.74,10,0,1.98,ZA,1662890160
70,Yellowknife,62.456,-114.3525,281.44,81,75,6.71,CA,1662890027
71,Launceston,-41.45,147.1667,281.01,70,18,5.14,AU,1662889983
72,Jumla,29.2747,82.1838,291.6,86,88,1.66,NP,1662890160
73,Chui,-33.6971,-53.4616,277.78,86,0,1.34,UY,1662890161
74,Cabo San Lucas,22.8909,-109.9124,299.55,82,11,1.34,MX,1662890161
75,Whitehorse,60.7161,-135.0538,275.58,64,40,2.57,CA,1662890162
76,Ponta do Sol,32.6667,-17.1,298.55,93,100,3.12,PT,1662890162
77,Butterworth,5.3991,100.3638,303.18,70,20,2.24,MY,1662890163
78,Tarko-Sale,64.9225,77.785,280.74,66,89,3.5,RU,1662890163
79,Esperance,-33.8667,121.9,288.49,79,37,7.92,AU,1662890163
80,Vaini,-21.2,-175.2,297.24,83,20,2.57,TO,1662890164
81,George Town,5.4112,100.3354,303.12,70,20,2.24,MY,1662890101
82,Salalah,17.0151,54.0924,301.64,77,83,4.96,OM,1662890164
83,Magadan,59.5667,150.8,284.0,70,15,1.99,RU,1662890164
84,Grindavik,63.8424,-22.4338,282.41,81,40,7.72,IS,1662890165
85,Lebu,-37.6167,-73.65,280.68,91,9,2.9,CL,1662890165
86,Duminichi,53.9345,35.1099,280.01,85,100,4.76,RU,1662890165
87,Hasaki,35.7333,140.8333,296.37,84,90,9.57,JP,1662890165
88,Struer Municipality,56.4912,8.5838,291.54,69,43,3.37,DK,1662890166
89,Dikson,73.5069,80.5464,277.24,77,100,10.13,RU,1662889987
90,Mehamn,71.0357,27.8492,280.12,81,100,1.54,NO,1662890167
91,Butaritari,3.0707,172.7902,300.78,71,15,6.51,KI,1662890167
92,Samarai,-10.6167,150.6667,300.28,85,11,5.34,PG,1662890168
93,Upernavik,72.7868,-56.1549,278.04,96,100,6.9,GL,1662890168
94,Chapais,49.7834,-74.8492,286.03,89,3,1.84,CA,1662890169
95,East London,-33.0153,27.9116,292.67,59,0,7.2,ZA,1662890169
96,Khovd,48.0056,91.6419,296.61,19,15,5.43,MN,1662889967
97,Gold Coast,-28.0,153.4333,293.15,78,73,3.6,AU,1662889947
98,Mareeba,-17.0,145.4333,295.06,87,0,2.56,AU,1662890170
99,Mariinsk,56.2139,87.7472,289.86,46,88,2.53,RU,1662890170
100,Havre-St-Pierre,50.2334,-63.5986,285.35,100,100,2.06,CA,1662890171
101,Le Port,-20.9373,55.2919,298.15,74,65,1.24,RE,1662890172
102,Saint George,37.1041,-113.5841,298.0,63,97,0.37,US,1662890172
103,Cherskiy,68.75,161.3,282.27,83,100,2.6,RU,1662890173
104,Paramonga,-10.6667,-77.8333,288.45,87,74,3.81,PE,1662890173
105,Vila Velha,-20.3297,-40.2925,296.12,83,100,3.6,BR,1662890173
106,Tena,-0.9833,-77.8167,293.33,87,100,0.68,EC,1662890173
107,Mier,26.4333,-99.15,300.42,69,73,3.15,MX,1662890174
108,Touros,-5.1989,-35.4608,298.99,70,26,6.36,BR,1662890174
109,Saint-Philippe,-21.3585,55.7679,297.92,77,49,5.96,RE,1662890175
110,Kushmurun,52.4503,64.6311,287.12,46,100,7.27,KZ,1662890175
111,Kapaa,22.0752,-159.319,298.14,90,75,1.54,US,1662890175
112,Souillac,-20.5167,57.5167,298.36,61,20,5.66,MU,1662890176
113,Tiksi,71.6872,128.8694,276.3,97,100,4.37,RU,1662890176
114,Nangwa,-4.4667,35.45,297.22,38,7,3.83,TZ,1662890177
115,Varhaug,58.6147,5.6457,290.29,71,7,2.79,NO,1662890177
116,Khatanga,71.9667,102.5,277.45,70,99,1.77,RU,1662890177
117,Atuona,-9.8,-139.0333,297.92,71,1,8.58,PF,1662890178
118,Barrow,71.2906,-156.7887,276.64,88,100,5.76,US,1662890022
119,Rapid City,44.0805,-103.231,284.33,73,0,4.47,US,1662890179
120,Lithakia,37.7167,20.8333,304.8,59,0,3.34,GR,1662890179
121,Banda Aceh,5.5577,95.3222,301.64,71,83,4.68,ID,1662889900
122,Narsaq,60.9167,-46.05,281.06,68,99,0.72,GL,1662890180
123,Bredasdorp,-34.5322,20.0403,286.98,63,100,5.23,ZA,1662890180
124,Port Elizabeth,-33.918,25.5701,294.87,60,20,9.77,ZA,1662890180
125,Albany,42.6001,-73.9662,291.18,89,100,0.33,US,1662890181
126,Lagoa,39.05,-27.9833,295.26,81,100,13.3,PT,1662890181
127,Ancud,-41.8697,-73.8203,281.05,90,100,1.3,CL,1662890182
128,Qaanaaq,77.484,-69.3632,276.0,98,100,4.07,GL,1662890182
129,Kaitangata,-46.2817,169.8464,280.73,92,58,2.96,NZ,1662890182
130,Alice Springs,-23.7,133.8833,294.9,40,100,7.2,AU,1662890183
131,Punta Alta,-38.8759,-62.0736,281.82,42,0,3.31,AR,1662890183
132,Avarua,-21.2078,-159.775,297.18,83,75,5.14,CK,1662890156
133,Mahibadhoo,3.7833,72.9667,300.53,80,74,6.06,MV,1662890184
134,Zyryanka,65.75,150.85,278.21,92,100,1.25,RU,1662890184
135,Omboué,-1.5746,9.2618,299.92,69,64,4.06,GA,1662890185
136,La Fria,8.2203,-72.2439,296.05,80,67,1.33,VE,1662890185
137,Grand Gaube,-20.0064,57.6608,298.37,59,4,4.92,MU,1662890185
138,Broome,42.2506,-75.833,291.58,87,100,1.34,US,1662890186
139,Qaqortoq,60.7167,-46.0333,280.22,77,100,0.7,GL,1662890186
140,Kavieng,-2.5744,150.7967,301.12,68,10,7.11,PG,1662890186
141,Harper,4.375,-7.7169,298.41,80,71,4.11,LR,1662890186
142,Camacha,33.0833,-16.3333,295.83,83,20,3.6,PT,1662890187
143,Nouadhibou,20.931,-17.0347,296.71,78,15,9.49,MR,1662890187
144,Jalu,29.0331,21.5482,306.87,23,0,3.02,LY,1662890187
145,Abu Samrah,35.3029,37.1841,307.39,12,0,3.43,SY,1662890188
146,Hervey Bay,-25.2986,152.8535,292.05,71,10,6.26,AU,1662890188
147,Asău,46.4333,26.4,294.66,43,24,3.25,RO,1662890188
148,Kudinovo,54.9994,36.2533,287.39,38,100,6.02,RU,1662890188
149,Norman Wells,65.282,-126.8329,280.17,100,75,2.57,CA,1662890189
150,Yining,29.0361,114.5636,302.06,55,58,1.48,CN,1662890189
151,Tateyama,34.9833,139.8667,298.76,80,20,7.74,JP,1662890189
152,Dunda,-8.1167,34.25,304.56,27,37,2.33,TZ,1662890189
153,Tiarei,-17.5333,-149.3333,297.16,72,4,7.6,PF,1662890190
154,Boralday,43.3578,76.8594,285.07,82,100,2.0,KZ,1662890190
155,Shakhtinsk,49.71,72.5872,287.65,39,92,11.53,KZ,1662890191
156,Khani,41.9563,42.9566,297.91,34,3,3.28,GE,1662890191
157,Del Rio,29.3627,-100.8968,297.72,74,83,1.79,US,1662890192
158,Vestmannaeyjar,63.4427,-20.2734,284.3,85,68,9.43,IS,1662890192
159,Carnarvon,-24.8667,113.6333,294.29,63,0,5.65,AU,1662890192
160,Bengkulu,-3.8004,102.2655,300.69,72,72,1.65,ID,1662890095
161,Prien,30.1819,-93.2738,296.49,95,0,1.54,US,1662890193
162,Hilo,19.7297,-155.09,295.51,91,18,1.79,US,1662890193
163,Faanui,-16.4833,-151.75,299.13,71,10,9.03,PF,1662890193
164,Thompson,55.7435,-97.8558,284.24,71,40,3.09,CA,1662890194
165,Pozo Colorado,-23.4923,-58.7972,283.26,41,7,2.07,PY,1662890194
166,Lavrentiya,65.5833,-171.0,279.2,77,100,4.58,RU,1662890194
167,Santo Antão do Tojal,38.8515,-9.1398,298.99,74,40,3.13,PT,1662890194
168,Santa Rosa,14.3122,121.1114,303.14,77,90,4.61,PH,1662890195
169,Makat,47.6469,53.3463,290.59,28,3,3.31,KZ,1662890195
170,Nampula,-15.1165,39.2666,304.98,23,4,2.97,MZ,1662890196
171,Mount Gambier,-37.8333,140.7667,281.21,90,100,2.01,AU,1662890196
172,Puerto Ayora,-0.7393,-90.3518,292.34,88,91,2.24,EC,1662890196
173,Shingū,33.7333,135.9833,297.52,82,2,2.36,JP,1662890196
174,Taltal,-25.4,-70.4833,284.65,78,45,0.72,CL,1662890197
175,Baturaja,-4.1333,104.1667,301.44,74,100,0.42,ID,1662890197
176,Seidu,9.0167,-10.6,295.44,92,99,0.93,SL,1662890198
177,Santa Fe,-31.6333,-60.7,282.03,68,54,1.34,AR,1662890198
178,Marrakesh,31.6315,-8.0083,302.19,58,75,1.03,MA,1662890199
179,Carahue,-38.7,-73.1667,279.03,98,64,0.54,CL,1662890199
180,Provideniya,64.3833,-173.3,279.53,84,100,6.62,RU,1662890200
181,Dire Dawa,9.5931,41.8661,302.85,39,85,1.15,ET,1662890200
182,Pevek,69.7008,170.3133,278.47,75,89,0.99,RU,1662890200
183,Hofn,64.2539,-15.2082,284.05,89,100,4.0,IS,1662890200
184,Alekseyevsk,57.8406,108.3492,285.57,66,91,1.52,RU,1662890201
185,Ippy,6.2679,21.2247,300.36,68,83,2.08,CF,1662890201
186,Moose Factory,51.2585,-80.6094,287.15,94,100,1.54,CA,1662890202
187,Suoyarvi,62.0833,32.35,287.51,46,18,2.43,RU,1662890202
188,Tura,25.5198,90.2201,299.3,83,94,2.13,IN,1662890202
189,Churapcha,62.0025,132.4325,278.47,68,93,2.83,RU,1662890203
190,Marawi,7.9986,124.2928,294.87,91,75,0.16,PH,1662890203
191,Carutapera,-1.195,-46.02,298.96,83,0,2.3,BR,1662890204
192,Vostok,46.4856,135.8833,287.63,83,100,0.73,RU,1662890204
193,Chokurdakh,70.6333,147.9167,277.46,82,99,1.85,RU,1662890204
194,Owando,-0.4819,15.8999,303.58,51,25,2.79,CG,1662890205
195,Lubumbashi,-11.6609,27.4794,303.32,18,0,2.73,CD,1662890205
196,Juneau,58.3019,-134.4197,284.38,97,75,0.0,US,1662890206
197,Ribeira Grande,38.5167,-28.7,295.37,78,75,9.26,PT,1662890206
198,Aasiaat,68.7098,-52.8699,276.7,98,100,3.31,GL,1662890207
199,Leningradskiy,69.3833,178.4167,275.54,96,64,3.99,RU,1662890207
200,Sambava,-14.2667,50.1667,297.92,64,7,6.01,MG,1662890208
201,Ulaangom,49.9811,92.0667,293.21,30,74,2.97,MN,1662890208
202,Buala,-8.145,159.5921,299.71,79,15,3.29,SB,1662890208
203,Baykit,61.67,96.37,281.94,88,98,0.99,RU,1662890209
204,Tomatlán,19.9333,-105.25,297.17,96,100,1.17,MX,1662890209
205,Fortuna,40.5982,-124.1573,287.4,92,93,0.69,US,1662890210
206,Haukipudas,65.1765,25.3523,286.56,78,100,4.38,FI,1662890210
207,Ciudad Mante,22.7333,-98.9667,297.79,92,40,0.41,MX,1662890210
208,San Cristobal,7.7669,-72.225,290.96,95,68,1.14,VE,1662890211
209,Flin Flon,54.7682,-101.865,282.86,58,19,3.39,CA,1662890211
210,Beipiao,41.7919,120.7792,294.78,50,5,5.73,CN,1662890211
211,Arraial do Cabo,-22.9661,-42.0278,293.07,83,100,4.12,BR,1662890212
212,Kudahuvadhoo,2.6708,72.8944,300.97,75,68,6.04,MV,1662890212
213,Atar,20.5169,-13.0499,309.72,23,98,1.62,MR,1662890212
214,Ostrovnoy,68.0531,39.5131,283.05,80,100,4.15,RU,1662890212
215,Gaildorf,49.0003,9.7695,291.59,86,100,3.6,DE,1662890213
216,Shenjiamen,29.9576,122.298,298.19,84,27,5.83,CN,1662890213
217,Tommot,58.9564,126.2925,278.95,86,58,0.7,RU,1662890213
218,Nikolskoye,59.7035,30.7861,289.19,43,5,2.33,RU,1662890214
219,Comodoro Rivadavia,-45.8667,-67.5,281.07,66,0,4.12,AR,1662890214
220,Alyangula,-13.8483,136.4192,298.31,83,8,5.2,AU,1662890216
221,Caucayá,-0.1934,-74.7819,293.59,98,100,0.18,CO,1662890216
222,Nanyuki,0.0167,37.0728,297.98,38,12,2.31,KE,1662890217
223,Loa Janan,-0.583,117.095,297.02,97,100,0.9,ID,1662890217
224,Oyem,1.5995,11.5793,295.96,77,100,1.71,GA,1662890218
225,Inírida,3.8653,-67.9239,294.33,99,79,1.01,CO,1662890218
226,Ambilobe,-13.2,49.05,306.88,26,20,1.71,MG,1662890218
227,Dickson,36.077,-87.3878,293.69,99,100,0.45,US,1662890219
228,Christchurch,-43.5333,172.6333,283.66,92,75,3.09,NZ,1662890131
229,Ubari,26.5921,12.7805,305.77,19,0,4.01,LY,1662890219
230,La Rioja,42.25,-2.5,293.03,27,0,0.88,ES,1662890220
231,Muborak,39.2553,65.1528,298.41,15,3,8.16,UZ,1662890221
232,Sapele,5.8941,5.6767,298.59,84,99,2.31,NG,1662890221
233,Canto do Buriti,-8.11,-42.9444,297.41,60,10,3.15,BR,1662890221
234,Margate,51.3813,1.3862,295.2,76,10,0.45,GB,1662889952
235,Ranfurly,-45.1333,170.1,276.54,88,82,1.97,NZ,1662890222
236,Torbay,47.6666,-52.7314,288.01,97,100,14.75,CA,1662890222
237,Bubaque,11.2833,-15.8333,299.29,83,96,4.32,GW,1662890223
238,Qui Nhon,13.7667,109.2333,301.72,75,20,3.4,VN,1662890152
239,Pacifica,37.6138,-122.4869,294.85,91,100,2.57,US,1662890223
240,Nuevo Progreso,23.1667,-97.95,297.34,79,3,1.12,MX,1662890225
241,Kavaratti,10.5669,72.642,300.02,84,100,9.4,IN,1662890225
242,Atasū,48.6814,71.6433,284.63,54,98,10.91,KZ,1662890225
243,Carbonia,39.1672,8.5222,301.49,49,0,4.85,IT,1662890226
244,São José da Coroa Grande,-8.8978,-35.1478,297.5,76,23,4.36,BR,1662890226
245,Zheleznodorozhnyy,55.7503,38.0042,288.91,35,99,4.02,RU,1662890227
246,Aberdeen,57.1437,-2.0981,290.65,87,40,6.17,GB,1662890227
247,Talnakh,69.4865,88.3972,278.82,99,100,2.52,RU,1662890228
248,Katsuura,35.1333,140.3,297.54,84,66,9.09,JP,1662890228
249,Severo-Kuril'sk,50.6789,156.125,285.8,68,3,6.18,RU,1662890229
250,Te Anau,-45.4167,167.7167,277.84,88,75,0.62,NZ,1662890229
251,Kathmandu,27.7167,85.3167,296.27,88,75,2.06,NP,1662890195
252,Pinar del Río,22.4175,-83.6981,297.43,93,96,1.83,CU,1662890230
253,Mossamedes,-15.1961,12.1522,296.5,73,0,0.0,AO,1662890230
254,Vanimo,-2.6741,141.3028,298.38,88,100,1.53,PG,1662890230
255,Pingzhuang,42.0372,119.2889,298.54,37,1,6.59,CN,1662890231
256,Thinadhoo,0.5333,72.9333,301.03,72,81,6.43,MV,1662890231
257,Hay River,60.8156,-115.7999,284.14,66,20,3.6,CA,1662890231
258,Mitsamiouli,-11.3847,43.2844,298.08,71,27,0.8,KM,1662890232
259,Rio Grande,-32.035,-52.0986,281.32,79,0,2.43,BR,1662890229
260,Coyhaique,-45.5752,-72.0662,279.49,93,40,1.03,CL,1662890232
261,Utinga,-5.8172,-35.3954,296.62,94,20,2.57,BR,1662890233
262,Porbandar,21.6422,69.6093,303.44,69,73,4.21,IN,1662890233
263,Navan,53.6528,-6.6814,289.5,96,100,2.29,IE,1662890234
264,Palmerston North,-40.35,175.6167,284.85,94,100,1.23,NZ,1662890234
265,Gavirate,45.8401,8.7198,299.39,44,0,0.89,IT,1662890235
266,Deer Lake,49.1667,-57.4316,279.07,100,100,1.03,CA,1662890235
267,Kargil,34.5667,76.1,292.2,23,66,2.37,IN,1662890235
268,Yar-Sale,66.8333,70.8333,282.03,62,100,7.03,RU,1662890236
269,Otavi,-19.65,17.3333,303.06,9,0,3.34,NA,1662890236
270,Tweed,44.4751,-77.3162,290.5,88,100,0.63,CA,1662890236
271,Laas,46.6166,10.7002,290.57,51,20,2.34,IT,1662890236
272,Qasigiannguit,68.8193,-51.1922,278.12,97,100,4.37,GL,1662890237
273,Djibouti,11.5,42.5,307.99,30,21,5.5,DJ,1662890237
274,Dengzhou,37.8086,120.7508,295.05,75,29,3.1,CN,1662890237
275,Liepāja,56.5419,21.0367,289.14,48,0,5.14,LV,1662890238
276,Freeport,40.6576,-73.5832,296.03,75,100,1.79,US,1662890209
277,Mount Darwin,-16.7725,31.5838,303.42,18,0,2.76,ZW,1662890238
278,Pisco,-13.7,-76.2167,285.38,82,20,2.06,PE,1662890238
279,Okhotsk,59.3833,143.3,283.92,44,27,11.53,RU,1662890239
280,Sioux Lookout,50.1001,-91.917,278.19,100,0,0.0,CA,1662890239
281,Klaksvík,62.2266,-6.589,285.66,97,100,10.95,FO,1662890239
282,Wagar,16.1525,36.2032,308.96,36,44,5.48,SD,1662890240
283,Iqaluit,63.7506,-68.5145,280.0,87,100,3.6,CA,1662890240
284,Anito,12.4497,125.2886,300.59,78,100,1.67,PH,1662890240
285,Ābādān,30.3392,48.3043,319.12,8,0,9.77,IR,1662890240
286,Portland,45.5234,-122.6762,294.84,58,0,2.06,US,1662889944
287,Eureka,40.8021,-124.1637,287.97,91,95,0.64,US,1662890241
288,Husavik,66.0449,-17.3389,282.99,97,100,2.23,IS,1662890241
289,São Paulo de Olivença,-3.3783,-68.8725,295.31,99,89,1.06,BR,1662890241
290,Kuusamo,65.9667,29.1833,284.17,62,0,5.66,FI,1662890242
291,Hirara,24.8,125.2833,300.3,89,75,11.32,JP,1662890128
292,Kristinestad,62.2743,21.376,286.63,67,99,2.51,FI,1662890242
293,Lyngseidet,69.5763,20.2189,282.15,76,100,1.78,NO,1662890242
294,San-Pédro,4.7485,-6.6363,298.76,78,52,3.44,CI,1662890243
295,Luganville,-15.5333,167.1667,298.74,75,24,3.17,VU,1662890243
296,Rock Hill,34.9249,-81.0251,295.42,74,100,2.06,US,1662890243
297,Weiz,47.2167,15.6167,293.22,65,90,1.77,AT,1662890245
298,Jérémie,18.65,-74.1167,300.19,81,96,2.82,HT,1662890246
299,San Miguel de Tucumán,-26.8241,-65.2226,277.15,70,1,2.06,AR,1662890246
300,Aykhal,66.0,111.5,276.38,68,100,3.03,RU,1662890247
301,Hinganghāt,20.5667,78.8333,302.12,79,100,1.57,IN,1662890247
302,Tarata,-17.6167,-66.0167,285.19,68,11,1.75,BO,1662890248
303,Pingliang,35.5392,106.6861,294.99,56,36,3.86,CN,1662890248
304,Takoradze,4.8845,-1.7554,300.06,70,66,3.5,GH,1662890248
305,Nānākuli,21.3906,-158.1547,299.12,74,0,2.53,US,1662890249
306,Plouzané,48.3833,-4.6167,291.33,94,100,5.66,FR,1662890249
307,Half Moon Bay,37.4636,-122.4286,295.86,87,100,2.57,US,1662890249
308,Rapid Valley,44.0625,-103.1463,284.5,73,0,4.47,US,1662890250
309,Sarangani,5.4033,125.4636,301.97,69,100,3.23,PH,1662890250
310,Cayenne,4.9333,-52.3333,298.17,94,75,0.51,GF,1662890250
311,Tamala,52.541,43.2515,288.84,38,55,2.85,RU,1662890251
312,Sørland,67.667,12.6934,284.07,76,100,5.37,NO,1662890251
313,Leshukonskoye,64.8989,45.7622,285.39,64,70,1.68,RU,1662890251
314,Flinders,-34.5833,150.8552,286.75,65,0,5.4,AU,1662889969
315,Shelburne,44.0787,-80.2041,290.79,89,100,2.81,CA,1662890252
316,São Miguel,-5.4667,-35.3667,296.58,74,32,6.03,BR,1662890252
317,Ati,13.2154,18.3353,305.64,42,83,2.06,TD,1662890252
318,Bansang,13.4333,-14.65,296.76,94,96,2.64,GM,1662890253
319,Vilhena,-12.7406,-60.1458,292.95,59,26,1.45,BR,1662890148
320,Batemans Bay,-35.7167,150.1833,285.98,75,0,0.73,AU,1662890254
321,Jining,35.405,116.5814,299.46,52,11,0.58,CN,1662890254
322,Kumul,42.8,93.45,308.5,10,0,0.48,CN,1662890205
323,Pochutla,15.7432,-96.4661,296.94,78,100,1.17,MX,1662890254
324,Erenhot,43.6475,111.9767,302.98,16,8,4.54,CN,1662890119
325,Jiangyou,31.7667,104.7167,298.21,72,87,0.83,CN,1662890255
326,La Ronge,55.1001,-105.2842,284.29,76,40,3.09,CA,1662890255
327,Barão de Melgaço,-16.1944,-55.9675,293.51,57,13,1.71,BR,1662890255
328,Amahai,-3.3333,128.9167,298.79,85,81,0.95,ID,1662890256
329,Muros,42.7762,-9.0603,297.64,76,96,2.77,ES,1662890256
330,Wolfsburg,52.4333,10.8,295.5,74,36,2.76,DE,1662890256
331,Kamenka,51.3223,42.7678,289.98,33,54,4.68,RU,1662890257
332,Lüderitz,-26.6481,15.1594,295.36,43,13,11.24,NA,1662890257
333,Tabas,33.5959,56.9244,310.27,13,27,1.03,IR,1662890257
334,Cap Malheureux,-19.9842,57.6142,297.85,59,2,4.92,MU,1662890258
335,‘Ewa Beach,21.3156,-158.0072,299.12,76,0,1.79,US,1662890258
336,Bambanglipuro,-7.95,110.2833,298.88,85,94,5.59,ID,1662890258
337,Sur,22.5667,59.5289,307.47,43,66,2.97,OM,1662890258
338,Geelong,-38.1471,144.3607,284.3,90,100,5.66,AU,1662890224
339,Pacific Grove,36.6177,-121.9166,294.01,86,99,0.45,US,1662890259
340,Rome,43.2128,-75.4557,291.33,91,100,1.92,US,1662890259
341,Gurupi,-11.7292,-49.0686,299.83,29,31,1.34,BR,1662890092
342,Karratha,-20.7377,116.8463,297.79,48,0,4.26,AU,1662890260
343,Auki,-8.7676,160.7034,297.86,87,48,2.07,SB,1662890260
344,Porto Velho,-8.7619,-63.9039,297.18,94,20,1.54,BR,1662890128
345,Naviraí,-23.065,-54.1906,287.86,53,4,1.24,BR,1662890260
346,Mbanza-Ngungu,-5.25,14.8667,299.49,54,89,3.99,CD,1662890261
347,Ust'-Karsk,52.7011,118.8077,284.2,69,99,1.53,RU,1662890262
348,Xiangxiang,27.7333,112.5333,304.95,38,7,2.47,CN,1662890262
349,Ossora,59.2353,163.0719,282.67,83,80,2.03,RU,1662890262
350,Malakal,9.5334,31.6605,302.14,67,75,3.18,SS,1662890263
351,Omsukchan,62.5333,155.8,278.0,84,100,1.35,RU,1662890263
352,Inhambane,-23.865,35.3833,302.03,45,0,5.74,MZ,1662890263
353,Maragogi,-9.0122,-35.2225,297.56,77,22,4.2,BR,1662890264
354,Zhangaözen,43.3,52.8,292.96,24,0,2.98,KZ,1662890264
355,Santa Maria,-29.6842,-53.8069,275.76,100,0,0.51,BR,1662890264
356,Codrington,-38.2667,141.9667,282.44,74,100,4.6,AU,1662890265
357,Labytnangi,66.6572,66.4183,280.81,80,100,5.55,RU,1662890265
358,Saint-Ambroise,48.5501,-71.3324,287.93,100,3,1.54,CA,1662890265
359,Yanta,36.2411,115.6672,299.86,48,27,0.83,CN,1662890265
360,Erzin,36.9559,36.2,305.48,41,0,3.47,TR,1662890265
361,Mahébourg,-20.4081,57.7,298.31,61,20,5.66,MU,1662890266
362,Haifa,32.8156,34.9892,304.42,59,20,4.63,IL,1662890193
363,High Level,58.5169,-117.136,279.21,70,0,1.54,CA,1662890266
364,Canutama,-6.5339,-64.3831,296.45,74,55,0.59,BR,1662890267
365,Pathein,16.7833,94.7333,302.64,68,96,2.76,MM,1662890267
366,Douglas,41.3,-96.167,284.14,90,0,0.0,US,1662890268
367,Forsytheganj,52.6333,29.7333,284.83,94,100,4.0,BY,1662890268
368,Gbadolite,4.2833,21.0167,298.83,87,89,2.23,CD,1662890269
369,Matanzas,23.0411,-81.5775,298.62,88,100,2.54,CU,1662890112
370,Nantucket,41.2835,-70.0995,292.6,47,100,4.89,US,1662890269
371,Verkhnyaya Maksakovka,61.635,50.9674,284.16,71,40,2.0,RU,1662890270
372,Suriāpet,17.15,79.6167,299.3,83,100,5.61,IN,1662890270
373,Saldanha,-33.0117,17.9442,289.18,71,100,9.11,ZA,1662890067
374,Houndé,11.5,-3.5167,299.96,74,69,4.17,BF,1662890272
375,Karema,-6.8205,30.4389,301.39,50,38,6.29,TZ,1662890272
376,Sullia,12.5667,75.3833,299.14,91,99,2.73,IN,1662890273
377,Al Bardīyah,31.7561,25.0865,302.65,58,0,7.77,LY,1662890273
378,Bilma,18.6853,12.9164,310.25,11,24,2.55,NE,1662890273
379,Santa Ana,33.7456,-117.8678,297.95,85,100,1.54,US,1662890236
380,Rimbey,52.6334,-114.2353,289.44,48,0,2.34,CA,1662890274
381,Port Augusta,-32.5,137.7667,285.23,69,1,4.6,AU,1662890274
382,Nizhnevartovsk,60.9344,76.5531,282.16,66,20,2.0,RU,1662890275
383,Samarkand,39.6542,66.9597,295.83,35,81,4.12,UZ,1662890275
384,La Palma,33.8464,-118.0467,298.3,86,100,1.54,US,1662890275
385,Belaya Gora,68.5333,146.4167,281.06,66,100,3.23,RU,1662890276
386,Riyadh,24.6877,46.7219,314.23,8,4,5.31,SA,1662890003
387,Lompoc,34.6391,-120.4579,296.36,84,93,1.0,US,1662890276
388,Oussouye,12.485,-16.5469,299.12,77,100,2.88,SN,1662890277
389,Balaipungut,1.05,101.2833,298.62,89,100,0.56,ID,1662890277
390,Letnyaya Stavka,45.4306,43.4472,296.41,31,86,8.89,RU,1662890277
391,Oddur,4.1213,43.8894,305.95,34,80,8.14,SO,1662890278
392,Cabedelo,-6.9811,-34.8339,295.52,79,54,5.53,BR,1662890278
393,Kasongo-Lunda,-6.4667,16.8167,306.21,38,6,1.83,CD,1662890278
394,Roblin,51.23,-101.3565,280.21,43,6,3.36,CA,1662890279
395,Indianola,41.3581,-93.5574,285.42,88,51,3.56,US,1662890279
396,Myaundzha,63.0494,147.1858,274.99,59,43,3.77,RU,1662890279
397,Toamasina,-18.1667,49.3833,298.15,73,40,3.6,MG,1662890280
398,Antofagasta,-23.65,-70.4,286.75,85,55,2.84,CL,1662890280
399,Kenai,60.5544,-151.2583,282.64,93,100,1.02,US,1662890281
400,Kitim,32.4383,35.8956,302.56,22,0,4.72,JO,1662890281
401,Stromness,58.965,-3.296,288.13,89,99,5.81,GB,1662890281
402,Puerto Quijarro,-17.7833,-57.7667,291.54,60,5,1.32,BO,1662890282
403,Kiryat Gat,31.61,34.7642,306.7,31,0,5.28,IL,1662890282
404,Hāgere Hiywet,8.9833,37.85,290.74,86,99,0.57,ET,1662890282
405,Eyrarbakki,63.863,-21.1481,282.71,87,80,6.5,IS,1662890283
406,Constitución,-35.3333,-72.4167,282.8,82,85,2.83,CL,1662890283
407,Holme,56.1138,10.1725,290.34,70,17,4.08,DK,1662890284
408,Chul'man,56.8479,124.9104,278.8,72,67,1.97,RU,1662890284
409,Anadyr,64.75,177.4833,280.43,70,75,4.0,RU,1662890285
410,Dunedin,-45.8742,170.5036,282.48,90,100,1.79,NZ,1662890285
411,Mvomero,-6.25,38.6667,303.79,42,74,3.66,TZ,1662890285
412,Rundu,-17.9333,19.7667,305.9,9,0,3.0,NA,1662890286
413,Alto Araguaia,-17.3147,-53.2153,293.26,55,46,2.32,BR,1662890287
414,Sobolevo,54.4299,31.8996,280.81,94,100,7.49,RU,1662890287
415,Necochea,-38.5473,-58.7368,278.7,56,0,4.14,AR,1662890288
416,Bonthe,7.5264,-12.505,299.25,82,100,4.0,SL,1662890288
417,Yiyang,28.5892,112.3283,304.42,45,3,1.63,CN,1662890288
418,Hong Kong,22.2855,114.1577,305.18,75,28,4.92,HK,1662890102
419,Marsh Harbour,26.5412,-77.0636,301.98,72,1,1.99,BS,1662890289
420,Paamiut,61.994,-49.6678,279.33,86,97,7.69,GL,1662890289
421,Inuvik,68.3499,-133.7218,276.71,96,100,2.06,CA,1662890290
422,Makkah al Mukarramah,21.4267,39.8261,313.96,24,79,5.56,SA,1662890290
423,Cologne,50.9333,6.95,291.81,82,100,2.57,DE,1662890291
424,Ledyard Center,41.4398,-72.0142,293.22,75,99,1.95,US,1662890291
425,Erdenet,49.0333,104.0833,289.53,68,73,1.34,MN,1662890291
426,Port Shepstone,-30.7414,30.455,293.9,70,95,10.84,ZA,1662890291
427,Port Lincoln,-34.7333,135.8667,284.54,73,2,3.22,AU,1662890292
428,Port Hedland,-20.3167,118.5667,299.18,50,0,3.6,AU,1662890094
429,Kolokani,13.5728,-8.0339,299.65,76,86,1.94,ML,1662890292
430,Tautira,-17.7333,-149.15,298.69,72,5,7.19,PF,1662890293
431,Meulaboh,4.1363,96.1285,301.42,68,93,2.78,ID,1662890293
432,Neuquén,-38.9516,-68.0591,278.09,65,0,2.06,AR,1662890294
433,Kuybysheve,47.358,36.6491,294.72,30,100,8.18,UA,1662890294
434,Yangi Marg`ilon,40.4272,71.7189,298.55,29,40,4.12,UZ,1662890294
435,Abu Dhabi,24.4667,54.3667,314.21,50,0,2.06,AE,1662890132
436,Mazatlán,23.2167,-106.4167,301.43,85,68,1.79,MX,1662890295
437,Ust-Maya,60.4167,134.5333,277.83,78,100,1.83,RU,1662890295
438,Henties Bay,-22.116,14.2845,288.58,76,70,4.66,NA,1662890295
439,Geraldton,-28.7667,114.6,293.38,68,0,4.12,AU,1662890296
440,Hammerfest,70.6634,23.6821,280.4,100,75,2.57,NO,1662890296
441,Yegorlykskaya,46.5656,40.6562,295.68,24,68,9.05,RU,1662890296
442,Caravelas,-17.7125,-39.2481,294.26,74,13,2.76,BR,1662890296
443,Lokosovo,61.1333,74.8167,282.75,60,85,1.13,RU,1662890297
444,Goundam,16.4145,-3.6708,306.01,46,9,5.35,ML,1662890297
445,Usinsk,65.9939,57.5281,283.42,77,100,7.58,RU,1662890297
446,Tuatapere,-46.1333,167.6833,279.58,87,96,2.14,NZ,1662890297
447,Umm Kaddadah,13.6017,26.6876,306.87,33,51,1.83,SD,1662890298
448,Pemangkat,1.1667,108.9667,301.46,71,62,2.77,ID,1662890298
449,Port-Cartier,50.0334,-66.8654,286.34,95,34,0.88,CA,1662890299
450,Coos Bay,43.3665,-124.2179,288.7,95,68,0.87,US,1662890299
451,Esim,4.8699,-2.2405,299.42,73,50,3.89,GH,1662890299
452,Bloemhof,-27.6469,25.607,303.73,9,21,8.18,ZA,1662890300
453,Poum,-20.2333,164.0167,297.76,82,0,4.87,NC,1662890300
454,Biak,-0.9131,122.8766,296.57,91,100,3.07,ID,1662890300
455,Exeter,50.7236,-3.5275,293.33,78,40,4.63,GB,1662890268
456,Along,28.1667,94.7667,305.36,55,0,1.78,IN,1662890301
457,Hobyo,5.3505,48.5268,301.93,65,45,12.26,SO,1662890301
458,Naberera,-4.2,36.9333,297.82,39,13,5.0,TZ,1662890301
459,Caldwell,43.6629,-116.6874,291.44,51,0,0.0,US,1662890302
460,Māngrol,21.1167,70.1167,303.07,69,78,2.74,IN,1662890302
461,Haines Junction,60.7522,-137.5108,271.12,93,23,0.51,CA,1662890302
462,Kruisfontein,-34.0033,24.7314,293.64,57,100,10.15,ZA,1662890303
463,Birin,26.8865,88.0718,294.78,77,60,2.42,NP,1662890303
464,Gwadar,25.1216,62.3254,303.76,65,38,6.89,PK,1662890303
465,Orlik,52.5178,99.825,290.62,37,97,3.77,RU,1662890303
466,Ferrol,43.4832,-8.2369,297.92,73,75,0.57,ES,1662890041
467,Namatanai,-3.6667,152.4333,300.33,67,52,6.2,PG,1662890304
468,Khanpur,28.6453,70.6567,314.3,24,2,3.36,PK,1662890304
469,Vao,-22.6667,167.4833,296.14,81,68,1.85,NC,1662890305
470,Nanortalik,60.1432,-45.2371,279.06,85,95,3.82,GL,1662890305
471,Kennett,36.2362,-90.0556,295.12,100,100,0.0,US,1662890305
472,Norsup,-16.0667,167.3833,299.13,74,3,5.66,VU,1662890306
473,Acajutla,13.5928,-89.8275,298.17,86,100,2.0,SV,1662890306
474,Luanda,-8.8368,13.2343,296.15,83,40,2.06,AO,1662890306
475,Dunmore Town,25.5,-76.65,302.07,72,0,2.54,BS,1662890306
476,Kiama,-34.6833,150.8667,288.71,61,0,3.13,AU,1662890307
477,Port Blair,11.6667,92.75,304.17,66,40,6.69,IN,1662890307
478,Camargo,27.6667,-105.1667,295.55,54,2,3.25,MX,1662890307
479,San Quintín,30.4833,-115.95,296.43,84,0,1.56,MX,1662890308
480,Hīt,33.6416,42.8251,314.63,9,0,1.5,IQ,1662890308
481,Kaohsiung City,22.6163,120.3133,303.17,72,75,4.12,TW,1662889680
482,Kununurra,-15.7667,128.7333,304.14,42,18,4.12,AU,1662890308
483,Puerto Escondido,15.85,-97.0667,299.01,86,100,2.27,MX,1662890309
484,Kommunar,59.6206,30.39,288.99,42,7,2.66,RU,1662890309
485,Dwārka,22.2394,68.9678,303.57,72,96,2.83,IN,1662890310
486,Río Gallegos,-51.6226,-69.2181,276.18,81,0,1.54,AR,1662890310
487,Itarema,-2.9248,-39.9167,298.64,75,71,6.2,BR,1662890310
488,Rosarito,32.3333,-117.0333,297.27,87,85,0.69,MX,1662890311
489,Namangan,40.9983,71.6726,298.4,27,75,4.12,UZ,1662890312
490,Ashington,50.9331,-0.3909,294.43,85,40,3.6,GB,1662890312
491,Zhuhai,22.2769,113.5678,305.03,74,20,4.63,CN,1662890172
492,Gadung,6.8025,124.02,300.73,76,64,1.58,PH,1662890312
493,Todos Santos,23.45,-110.2167,297.4,95,8,2.62,MX,1662890313
494,Onufriyivka,48.9072,33.4487,284.68,81,100,3.98,UA,1662890313
495,Mayo,38.8876,-76.5119,296.5,89,100,0.45,US,1662890313
496,Forestville,38.8451,-76.875,295.66,93,100,0.0,US,1662890313
497,Bodmin,50.4715,-4.7243,293.0,88,40,7.72,GB,1662890314
498,Lyuban',52.7985,28.0048,284.3,90,100,4.41,BY,1662890314
499,Pontianak,-0.0333,109.3333,305.14,66,75,4.12,ID,1662890314
500,Morón,-34.6534,-58.6198,283.01,81,0,1.74,AR,1662890315
501,Port Hardy,50.6996,-127.4199,284.15,93,20,1.03,CA,1662890315
502,Beringovskiy,63.05,179.3167,280.59,84,100,9.29,RU,1662890315
503,Sovetskiy,61.3614,63.5842,282.97,65,89,2.09,RU,1662890315
504,Rocha,-34.4833,-54.3333,276.32,86,0,1.28,UY,1662890316
505,Araouane,18.9048,-3.5265,308.92,30,12,4.65,ML,1662890316
506,Båtsfjord,70.6345,29.7185,280.11,93,75,1.54,NO,1662890316
507,Dickinson,29.4608,-95.0513,299.21,91,0,1.87,US,1662890316
508,Aitape,-3.1374,142.3475,298.14,83,100,1.82,PG,1662890317
509,Arkhangel’skoye,55.8549,35.3287,287.43,38,100,5.15,RU,1662890317
510,Soc Trang,9.6033,105.98,299.03,89,100,2.44,VN,1662890021
511,Coquimbo,-29.9533,-71.3436,285.0,87,100,0.51,CL,1662890317
512,Brunsbüttel,53.9,9.15,291.28,80,3,2.24,DE,1662890318
513,Luba,3.4568,8.5547,300.09,82,100,0.84,GQ,1662890318
514,Pangody,65.85,74.4859,281.59,49,100,4.6,RU,1662890319
515,Zhezkazgan,47.8043,67.7144,285.14,76,75,8.0,KZ,1662890319
516,Ipixuna,-1.7625,-48.8043,296.29,91,80,1.25,BR,1662890319
517,Kautokeino,69.0125,23.0412,282.69,74,100,1.5,NO,1662890320
518,Koungheul,13.9833,-14.8,297.71,93,100,4.13,SN,1662890320
519,Kotelnikowo,47.6317,43.1461,293.65,21,48,7.47,RU,1662890320
520,Greeley,40.4233,-104.7091,283.33,92,0,0.08,US,1662890321
521,Galveston,29.3669,-94.9669,299.24,93,2,2.04,US,1662890321
522,Ketchikan,55.3422,-131.6461,284.19,81,81,3.49,US,1662890321
523,Hambantota,6.1241,81.1185,307.34,55,40,7.72,LK,1662890037
524,Wanlaweyn,2.6185,44.8938,303.51,49,93,8.35,SO,1662890322
525,Martinsville,36.6915,-79.8725,293.9,97,100,0.0,US,1662890323
526,Marsá Maţrūḩ,31.3525,27.2453,302.26,70,20,6.17,EG,1662890323
527,Nizhniy Kuranakh,58.8353,125.4869,279.03,86,53,1.11,RU,1662890323
528,Kano,12.0001,8.5167,298.49,74,97,2.55,NG,1662890324
529,Araceli,10.5529,119.9913,301.7,74,45,3.51,PH,1662890324
530,Winona,43.9666,-91.7668,285.04,100,100,2.06,US,1662890324
531,Bitung,1.4451,125.1824,301.62,81,100,2.44,ID,1662890245
532,Killybegs,54.6333,-8.45,287.99,78,100,4.28,IE,1662890325
533,Daru,-9.0763,143.2092,299.15,90,80,5.11,PG,1662890325
534,Ganzhou,28.8184,115.4327,302.46,49,54,3.61,CN,1662890325
535,Zambezi,-13.5432,23.1047,307.37,10,0,2.64,ZM,1662890326
536,Tire,38.0888,27.7351,309.73,22,0,2.59,TR,1662890326
537,Alofi,-19.0595,-169.9187,294.09,94,67,0.51,NU,1662890326
538,Acaraú,-2.8856,-40.12,298.65,75,76,6.76,BR,1662890326
539,Pringsewu,-5.3582,104.9744,298.74,90,91,1.65,ID,1662890327
540,Boa Vista,2.8197,-60.6733,298.14,84,75,1.03,BR,1662890327
541,Aklavik,68.2191,-135.0107,278.93,93,100,2.58,CA,1662890327
542,Mujiayingzi,42.1167,118.7833,298.41,32,2,4.0,CN,1662890328
543,Guangyuan,32.442,105.823,298.54,69,29,1.1,CN,1662890328
544,Saint Anthony,45.0205,-93.218,284.9,92,0,0.0,US,1662890328
545,Camacupa,-12.0167,17.4833,303.32,11,0,2.41,AO,1662890329
546,Djebeniana,35.035,10.9081,305.04,50,5,2.79,TN,1662890329
547,Ahipara,-35.1667,173.1667,287.74,96,100,2.47,NZ,1662890329
548,São Desidério,-12.3633,-44.9733,295.91,37,11,0.75,BR,1662890329
549,Denizli Province,37.8402,29.0698,307.3,21,0,2.03,TR,1662890152
550,Galle,6.0367,80.217,300.48,79,49,5.88,LK,1662890183
551,Oktyabr'skiy,54.4815,53.471,286.77,54,90,3.19,RU,1662890330
552,Panama City,8.9936,-79.5197,298.8,92,75,1.03,PA,1662890135
553,Gao,16.6362,1.637,305.97,43,60,4.19,ML,1662890331
554,Urmia,37.5527,45.0761,298.9,36,20,4.12,IR,1662890331
555,Port-Gentil,-0.7193,8.7815,301.13,69,40,6.69,GA,1662890331
556,Perth,-31.9333,115.8333,295.15,43,0,3.6,AU,1662889886
557,Kralendijk,12.15,-68.2667,301.93,75,16,8.36,BQ,1662890332
558,Nyuksenitsa,60.4128,44.2397,282.73,82,99,2.22,RU,1662890333
559,Kushiro,42.975,144.3747,290.68,94,75,3.09,JP,1662890154
560,Podari,44.25,23.7833,297.91,44,0,3.6,RO,1662890333
561,Diamantino,-14.4086,-56.4461,294.05,52,41,1.41,BR,1662890333
562,Puerto Madero,14.7208,-92.4215,298.18,85,100,2.21,MX,1662890334
563,Yārāda,17.65,83.2667,303.33,74,75,6.69,IN,1662890334
564,Thunder Bay,48.4001,-89.3168,280.1,93,0,1.54,CA,1662890334
565,Philadelphia,39.9523,-75.1638,294.85,89,100,0.77,US,1662890335
566,Boende,-0.2167,20.8667,296.89,94,98,1.68,CD,1662890335
567,Mpulungu,-8.7623,31.1141,300.85,45,29,4.48,ZM,1662890335
568,Sherlovaya Gora,50.5667,116.25,284.57,71,81,3.89,RU,1662890336
569,Honggang,46.4667,124.8667,296.0,48,98,4.13,CN,1662890336
570,Zhuanghe,39.7008,122.9911,293.98,80,56,2.28,CN,1662890336
571,Puksoozero,62.5903,40.6066,284.98,77,87,2.8,RU,1662890336
572,Letlhakane,-21.4167,25.5833,304.73,10,0,3.97,BW,1662890338
573,Vanderhoof,54.0166,-124.0198,283.67,77,0,1.04,CA,1662890338
574,Lieksa,63.3167,30.0167,286.25,60,99,2.93,FI,1662890338
575,Linjiang,41.8069,126.9078,294.27,78,52,0.75,CN,1662890339
576,Kalmunai,7.4167,81.8167,303.19,63,78,6.17,LK,1662890339
577,Mbalmayo,3.5167,11.5,297.33,68,96,2.58,CM,1662890340
578,Bandrele,-12.9067,45.1914,300.01,69,0,2.57,YT,1662890340
579,Néa Výssa,41.5833,26.5333,301.69,40,52,2.37,GR,1662890340
580,Sharlyk,52.9167,54.75,285.79,49,92,5.01,RU,1662890340
581,Neijiang,29.5835,105.0622,301.46,59,68,1.65,CN,1662890341
582,Olot,42.181,2.4901,299.4,42,3,1.66,ES,1662890341
583,Netrakona,24.8833,90.7167,302.65,72,99,4.22,BD,1662890342
584,Savalou,7.9281,1.9756,298.76,80,98,1.96,BJ,1662890342
